{"type":"FeatureCollection","features":[{"type":"Feature","geometry":{"type":"Point","coordinates":[-78.816,42.98973]},"properties":{"chain":"Wegmans","color":"#000","name":"Alberta Dr."},"id":1},{"type":"Feature","geometry":{"type":"Point","coordinates":[-77.16276,38.74177]},"properties":{"chain":"Wegmans","color":"#000","name":"Alexandria"},"id":2},{"type":"Feature","geometry":{"type":"Point","coordinates":[-78.8829,42.9387]},"properties":{"chain":"Wegmans","color":"#000","name":"Amherst St."},"id":3},{"type":"Feature","geometry":{"type":"Point","coordinates":[-76.5654,42.9314]},"properties":{"chain":"Wegmans","color":"#000","name":"Auburn"},"id":4},{"type":"Feature","geometry":{"type":"Point","coordinates":[-76.3084,39.46635]},"properties":{"chain":"Wegmans","color":"#000","name":"Bel Air"},"id":5},{"type":"Feature","geometry":{"type":"Point","coordinates":[-75.3883,40.66536]},"properties":{"chain":"Wegmans","color":"#000","name":"Bethlehem"},"id":6},{"type":"Feature","geometry":{"type":"Point","coordinates":[-74.67051,40.57372]},"properties":{"chain":"Wegmans","color":"#000","name":"Bridgewater"},"id":7},{"type":"Feature","geometry":{"type":"Point","coordinates":[-77.94611,43.20058]},"properties":{"chain":"Wegmans","color":"#000","name":"Brockport"},"id":8},{"type":"Feature","geometry":{"type":"Point","coordinates":[-71.2257,42.4869]},"properties":{"chain":"Wegmans","color":"#000","name":"Burlington"},"id":9},{"type":"Feature","geometry":{"type":"Point","coordinates":[-77.61175,43.06729]},"properties":{"chain":"Wegmans","color":"#000","name":"Calkins Rd."},"id":10},{"type":"Feature","geometry":{"type":"Point","coordinates":[-77.25408,42.87541]},"properties":{"chain":"Wegmans","color":"#000","name":"Canandaigua"},"id":11},{"type":"Feature","geometry":{"type":"Point","coordinates":[-77.44355,38.87791]},"properties":{"chain":"Wegmans","color":"#000","name":"Chantilly"},"id":12},{"type":"Feature","geometry":{"type":"Point","coordinates":[-78.50025,38.009]},"properties":{"chain":"Wegmans","color":"#000","name":"Charlottesville"},"id":13},{"type":"Feature","geometry":{"type":"Point","coordinates":[-75.03552,39.92248]},"properties":{"chain":"Wegmans","color":"#000","name":"Cherry Hill"},"id":14},{"type":"Feature","geometry":{"type":"Point","coordinates":[-71.17566,42.31962]},"properties":{"chain":"Wegmans","color":"#000","name":"Chestnut Hill"},"id":15},{"type":"Feature","geometry":{"type":"Point","coordinates":[-77.7458,43.1031]},"properties":{"chain":"Wegmans","color":"#000","name":"Chili-paul"},"id":16},{"type":"Feature","geometry":{"type":"Point","coordinates":[-76.119,43.1557]},"properties":{"chain":"Wegmans","color":"#000","name":"Cicero"},"id":17},{"type":"Feature","geometry":{"type":"Point","coordinates":[-75.4817,40.1647]},"properties":{"chain":"Wegmans","color":"#000","name":"Collegeville"},"id":18},{"type":"Feature","geometry":{"type":"Point","coordinates":[-76.8215,39.1856]},"properties":{"chain":"Wegmans","color":"#000","name":"Columbia"},"id":19},{"type":"Feature","geometry":{"type":"Point","coordinates":[-75.5411,39.86839]},"properties":{"chain":"Wegmans","color":"#000","name":"Concordville"},"id":20},{"type":"Feature","geometry":{"type":"Point","coordinates":[-77.0626,42.1455]},"properties":{"chain":"Wegmans","color":"#000","name":"Corning"},"id":21},{"type":"Feature","geometry":{"type":"Point","coordinates":[-76.68869,39.03229]},"properties":{"chain":"Wegmans","color":"#000","name":"Crofton"},"id":22},{"type":"Feature","geometry":{"type":"Point","coordinates":[-76.05325,43.03306]},"properties":{"chain":"Wegmans","color":"#000","name":"Dewitt"},"id":23},{"type":"Feature","geometry":{"type":"Point","coordinates":[-78.7378,42.92117]},"properties":{"chain":"Wegmans","color":"#000","name":"Dick Rd."},"id":24},{"type":"Feature","geometry":{"type":"Point","coordinates":[-75.6786,40.01648]},"properties":{"chain":"Wegmans","color":"#000","name":"Downingtown"},"id":25},{"type":"Feature","geometry":{"type":"Point","coordinates":[-77.44081,39.00691]},"properties":{"chain":"Wegmans","color":"#000","name":"Dulles"},"id":26},{"type":"Feature","geometry":{"type":"Point","coordinates":[-77.55622,43.14619]},"properties":{"chain":"Wegmans","color":"#000","name":"East Ave."},"id":27},{"type":"Feature","geometry":{"type":"Point","coordinates":[-77.5043,43.19323]},"properties":{"chain":"Wegmans","color":"#000","name":"Eastway"},"id":28},{"type":"Feature","geometry":{"type":"Point","coordinates":[-76.80983,42.10563]},"properties":{"chain":"Wegmans","color":"#000","name":"Elmira"},"id":29},{"type":"Feature","geometry":{"type":"Point","coordinates":[-80.0907,42.0602]},"properties":{"chain":"Wegmans","color":"#000","name":"Erie Peach St."},"id":30},{"type":"Feature","geometry":{"type":"Point","coordinates":[-80.1919,42.06996]},"properties":{"chain":"Wegmans","color":"#000","name":"Erie West"},"id":31},{"type":"Feature","geometry":{"type":"Point","coordinates":[-77.34734,38.85101]},"properties":{"chain":"Wegmans","color":"#000","name":"Fairfax"},"id":32},{"type":"Feature","geometry":{"type":"Point","coordinates":[-76.2262,43.0472]},"properties":{"chain":"Wegmans","color":"#000","name":"Fairmount"},"id":33},{"type":"Feature","geometry":{"type":"Point","coordinates":[-77.4825,43.1019]},"properties":{"chain":"Wegmans","color":"#000","name":"Fairport"},"id":34},{"type":"Feature","geometry":{"type":"Point","coordinates":[-77.39997,39.44611]},"properties":{"chain":"Wegmans","color":"#000","name":"Frederick"},"id":35},{"type":"Feature","geometry":{"type":"Point","coordinates":[-77.50863,38.31317]},"properties":{"chain":"Wegmans","color":"#000","name":"Fredericksburg"},"id":36},{"type":"Feature","geometry":{"type":"Point","coordinates":[-77.78252,42.79763]},"properties":{"chain":"Wegmans","color":"#000","name":"Geneseo"},"id":37},{"type":"Feature","geometry":{"type":"Point","coordinates":[-76.99619,42.8594]},"properties":{"chain":"Wegmans","color":"#000","name":"Geneva"},"id":38},{"type":"Feature","geometry":{"type":"Point","coordinates":[-77.2547,39.20017]},"properties":{"chain":"Wegmans","color":"#000","name":"Germantown"},"id":39},{"type":"Feature","geometry":{"type":"Point","coordinates":[-76.23777,43.188]},"properties":{"chain":"Wegmans","color":"#000","name":"Great Northern"},"id":40},{"type":"Feature","geometry":{"type":"Point","coordinates":[-74.437,40.838]},"properties":{"chain":"Wegmans","color":"#000","name":"Hanover"},"id":41},{"type":"Feature","geometry":{"type":"Point","coordinates":[-77.0123,40.2535]},"properties":{"chain":"Wegmans","color":"#000","name":"Harrisburg"},"id":42},{"type":"Feature","geometry":{"type":"Point","coordinates":[-77.44491,43.2138]},"properties":{"chain":"Wegmans","color":"#000","name":"Holt Rd."},"id":43},{"type":"Feature","geometry":{"type":"Point","coordinates":[-77.6704,42.3487]},"properties":{"chain":"Wegmans","color":"#000","name":"Hornell"},"id":44},{"type":"Feature","geometry":{"type":"Point","coordinates":[-76.656,39.4967]},"properties":{"chain":"Wegmans","color":"#000","name":"Hunt Valley"},"id":45},{"type":"Feature","geometry":{"type":"Point","coordinates":[-77.6015,43.20747]},"properties":{"chain":"Wegmans","color":"#000","name":"Irondequoit"},"id":46},{"type":"Feature","geometry":{"type":"Point","coordinates":[-76.5107,42.4353]},"properties":{"chain":"Wegmans","color":"#000","name":"Ithaca"},"id":47},{"type":"Feature","geometry":{"type":"Point","coordinates":[-76.0877,43.0687]},"properties":{"chain":"Wegmans","color":"#000","name":"James St."},"id":48},{"type":"Feature","geometry":{"type":"Point","coordinates":[-79.29009,42.09373]},"properties":{"chain":"Wegmans","color":"#000","name":"Jamestown"},"id":49},{"type":"Feature","geometry":{"type":"Point","coordinates":[-76.2232,43.13316]},"properties":{"chain":"Wegmans","color":"#000","name":"John Glenn"},"id":50},{"type":"Feature","geometry":{"type":"Point","coordinates":[-75.974,42.1232]},"properties":{"chain":"Wegmans","color":"#000","name":"Johnson City"},"id":51},{"type":"Feature","geometry":{"type":"Point","coordinates":[-75.4022,40.0831]},"properties":{"chain":"Wegmans","color":"#000","name":"King Of Prussia"},"id":52},{"type":"Feature","geometry":{"type":"Point","coordinates":[-77.6524,38.7842]},"properties":{"chain":"Wegmans","color":"#000","name":"Lake Manassas"},"id":53},{"type":"Feature","geometry":{"type":"Point","coordinates":[-76.34024,40.06125]},"properties":{"chain":"Wegmans","color":"#000","name":"Lancaster"},"id":54},{"type":"Feature","geometry":{"type":"Point","coordinates":[-77.6985,43.2525]},"properties":{"chain":"Wegmans","color":"#000","name":"Latta Rd."},"id":55},{"type":"Feature","geometry":{"type":"Point","coordinates":[-77.5228,39.0891]},"properties":{"chain":"Wegmans","color":"#000","name":"Leesburg"},"id":56},{"type":"Feature","geometry":{"type":"Point","coordinates":[-78.7002,42.883]},"properties":{"chain":"Wegmans","color":"#000","name":"Losson Rd."},"id":57},{"type":"Feature","geometry":{"type":"Point","coordinates":[-77.6884,43.16385]},"properties":{"chain":"Wegmans","color":"#000","name":"Lyell Ave."},"id":58},{"type":"Feature","geometry":{"type":"Point","coordinates":[-75.5222,40.04799]},"properties":{"chain":"Wegmans","color":"#000","name":"Malvern"},"id":59},{"type":"Feature","geometry":{"type":"Point","coordinates":[-74.29835,40.28995]},"properties":{"chain":"Wegmans","color":"#000","name":"Manalapan"},"id":60},{"type":"Feature","geometry":{"type":"Point","coordinates":[-77.62748,43.08358]},"properties":{"chain":"Wegmans","color":"#000","name":"Marketplace"},"id":61},{"type":"Feature","geometry":{"type":"Point","coordinates":[-78.81227,42.78332]},"properties":{"chain":"Wegmans","color":"#000","name":"Mckinley"},"id":62},{"type":"Feature","geometry":{"type":"Point","coordinates":[-71.09187,42.40669]},"properties":{"chain":"Wegmans","color":"#000","name":"Medford"},"id":63},{"type":"Feature","geometry":{"type":"Point","coordinates":[-77.62496,37.50222]},"properties":{"chain":"Wegmans","color":"#000","name":"Midlothian"},"id":64},{"type":"Feature","geometry":{"type":"Point","coordinates":[-78.9704,43.0949]},"properties":{"chain":"Wegmans","color":"#000","name":"Military Rd."},"id":65},{"type":"Feature","geometry":{"type":"Point","coordinates":[-75.24635,40.23751]},"properties":{"chain":"Wegmans","color":"#000","name":"Montgomeryville"},"id":66},{"type":"Feature","geometry":{"type":"Point","coordinates":[-74.06051,41.04965]},"properties":{"chain":"Wegmans","color":"#000","name":"Montvale"},"id":67},{"type":"Feature","geometry":{"type":"Point","coordinates":[-74.91507,39.96771]},"properties":{"chain":"Wegmans","color":"#000","name":"Mt. Laurel"},"id":68},{"type":"Feature","geometry":{"type":"Point","coordinates":[-77.66106,43.22629]},"properties":{"chain":"Wegmans","color":"#000","name":"Mt. Read"},"id":69},{"type":"Feature","geometry":{"type":"Point","coordinates":[-71.38577,42.30185]},"properties":{"chain":"Wegmans","color":"#000","name":"Natick"},"id":70},{"type":"Feature","geometry":{"type":"Point","coordinates":[-75.28702,40.71403]},"properties":{"chain":"Wegmans","color":"#000","name":"Nazareth"},"id":71},{"type":"Feature","geometry":{"type":"Point","coordinates":[-77.1139,43.0452]},"properties":{"chain":"Wegmans","color":"#000","name":"Newark"},"id":72},{"type":"Feature","geometry":{"type":"Point","coordinates":[-78.8216,43.0389]},"properties":{"chain":"Wegmans","color":"#000","name":"Niagara Falls Blvd."},"id":73},{"type":"Feature","geometry":{"type":"Point","coordinates":[-71.67102,42.29133]},"properties":{"chain":"Wegmans","color":"#000","name":"Northborough"},"id":74},{"type":"Feature","geometry":{"type":"Point","coordinates":[-74.03991,40.23911]},"properties":{"chain":"Wegmans","color":"#000","name":"Ocean"},"id":75},{"type":"Feature","geometry":{"type":"Point","coordinates":[-76.19046,43.03226]},"properties":{"chain":"Wegmans","color":"#000","name":"Onondaga"},"id":76},{"type":"Feature","geometry":{"type":"Point","coordinates":[-76.77425,39.41322]},"properties":{"chain":"Wegmans","color":"#000","name":"Owings Mills"},"id":77},{"type":"Feature","geometry":{"type":"Point","coordinates":[-77.4453,43.12915]},"properties":{"chain":"Wegmans","color":"#000","name":"Penfield"},"id":78},{"type":"Feature","geometry":{"type":"Point","coordinates":[-77.44436,43.07076]},"properties":{"chain":"Wegmans","color":"#000","name":"Perinton"},"id":79},{"type":"Feature","geometry":{"type":"Point","coordinates":[-77.54366,43.1061]},"properties":{"chain":"Wegmans","color":"#000","name":"Pittsford"},"id":80},{"type":"Feature","geometry":{"type":"Point","coordinates":[-77.28884,38.63084]},"properties":{"chain":"Wegmans","color":"#000","name":"Potomac"},"id":81},{"type":"Feature","geometry":{"type":"Point","coordinates":[-74.67511,40.3074]},"properties":{"chain":"Wegmans","color":"#000","name":"Princeton"},"id":82},{"type":"Feature","geometry":{"type":"Point","coordinates":[-78.62126,35.82114]},"properties":{"chain":"Wegmans","color":"#000","name":"Raleigh"},"id":83},{"type":"Feature","geometry":{"type":"Point","coordinates":[-77.55866,43.2049]},"properties":{"chain":"Wegmans","color":"#000","name":"Ridge-culver"},"id":84},{"type":"Feature","geometry":{"type":"Point","coordinates":[-77.70403,43.20785]},"properties":{"chain":"Wegmans","color":"#000","name":"Ridgemont"},"id":85},{"type":"Feature","geometry":{"type":"Point","coordinates":[-75.63376,41.4755]},"properties":{"chain":"Wegmans","color":"#000","name":"Scranton"},"id":86},{"type":"Feature","geometry":{"type":"Point","coordinates":[-78.7378,42.977]},"properties":{"chain":"Wegmans","color":"#000","name":"Sheridan Dr."},"id":87},{"type":"Feature","geometry":{"type":"Point","coordinates":[-77.636,37.66306]},"properties":{"chain":"Wegmans","color":"#000","name":"Short Pump"},"id":88},{"type":"Feature","geometry":{"type":"Point","coordinates":[-77.90818,40.8118]},"properties":{"chain":"Wegmans","color":"#000","name":"State College"},"id":89},{"type":"Feature","geometry":{"type":"Point","coordinates":[-76.16932,43.12255]},"properties":{"chain":"Wegmans","color":"#000","name":"Taft Rd."},"id":90},{"type":"Feature","geometry":{"type":"Point","coordinates":[-75.5411,40.5915]},"properties":{"chain":"Wegmans","color":"#000","name":"Tilghman St."},"id":91},{"type":"Feature","geometry":{"type":"Point","coordinates":[-78.70001,42.9946]},"properties":{"chain":"Wegmans","color":"#000","name":"Transit Rd."},"id":92},{"type":"Feature","geometry":{"type":"Point","coordinates":[-76.14039,36.84205]},"properties":{"chain":"Wegmans","color":"#000","name":"Virginia Beach"},"id":93},{"type":"Feature","geometry":{"type":"Point","coordinates":[-75.1319,40.2303]},"properties":{"chain":"Wegmans","color":"#000","name":"Warrington"},"id":94},{"type":"Feature","geometry":{"type":"Point","coordinates":[-78.78386,42.83515]},"properties":{"chain":"Wegmans","color":"#000","name":"West Seneca"},"id":95},{"type":"Feature","geometry":{"type":"Point","coordinates":[-71.15286,42.20505]},"properties":{"chain":"Wegmans","color":"#000","name":"Westwood"},"id":96},{"type":"Feature","geometry":{"type":"Point","coordinates":[-75.8624,41.2356]},"properties":{"chain":"Wegmans","color":"#000","name":"Wilkes-barre"},"id":97},{"type":"Feature","geometry":{"type":"Point","coordinates":[-77.0054,41.23758]},"properties":{"chain":"Wegmans","color":"#000","name":"Williamsport"},"id":98},{"type":"Feature","geometry":{"type":"Point","coordinates":[-74.2968,40.5488]},"properties":{"chain":"Wegmans","color":"#000","name":"Woodbridge"},"id":99},{"type":"Feature","geometry":{"type":"Point","coordinates":[-76.8501,38.9209]},"properties":{"chain":"Wegmans","color":"#000","name":"Woodmore"},"id":100},{"type":"Feature","geometry":{"type":"Point","coordinates":[-77.00055,38.87648]},"properties":{"chain":"Harris Teeter","color":"#007549","name":"The Yards"},"id":101},{"type":"Feature","geometry":{"type":"Point","coordinates":[-77.00587,38.90561]},"properties":{"chain":"Harris Teeter","color":"#007549","name":"Constitution Square"},"id":102},{"type":"Feature","geometry":{"type":"Point","coordinates":[-77.05252,38.84252]},"properties":{"chain":"Harris Teeter","color":"#007549","name":"Potomac Yard"},"id":103},{"type":"Feature","geometry":{"type":"Point","coordinates":[-77.044273265306,38.812135102041]},"properties":{"chain":"Harris Teeter","color":"#007549","name":"Old Town Alexandria"},"id":104},{"type":"Feature","geometry":{"type":"Point","coordinates":[-77.08980632348,38.841619824664]},"properties":{"chain":"Harris Teeter","color":"#007549","name":"Village of Shirlington"},"id":105},{"type":"Feature","geometry":{"type":"Point","coordinates":[-77.102561,38.859086]},"properties":{"chain":"Harris Teeter","color":"#007549","name":"George Mason"},"id":106},{"type":"Feature","geometry":{"type":"Point","coordinates":[-77.138035615487,38.896530410325]},"properties":{"chain":"Harris Teeter","color":"#007549","name":"Lee Harrison Shopping Center"},"id":107},{"type":"Feature","geometry":{"type":"Point","coordinates":[-77.112172105263,38.811989736842]},"properties":{"chain":"Harris Teeter","color":"#007549","name":"Shops at Foxchase"},"id":108},{"type":"Feature","geometry":{"type":"Point","coordinates":[-77.15624,38.83671]},"properties":{"chain":"Harris Teeter","color":"#007549","name":"Barcroft Plaza"},"id":109},{"type":"Feature","geometry":{"type":"Point","coordinates":[-77.096530502729,38.992756193443]},"properties":{"chain":"Harris Teeter","color":"#007549","name":"Flats 8300"},"id":110},{"type":"Feature","geometry":{"type":"Point","coordinates":[-77.17367,38.8839]},"properties":{"chain":"Harris Teeter","color":"#007549","name":"Little Falls"},"id":111},{"type":"Feature","geometry":{"type":"Point","coordinates":[-77.2288029,38.8811376]},"properties":{"chain":"Harris Teeter","color":"#007549","name":"Dunn Loring"},"id":112},{"type":"Feature","geometry":{"type":"Point","coordinates":[-77.22712,38.92972]},"properties":{"chain":"Harris Teeter","color":"#007549","name":"Tysons Corner"},"id":113},{"type":"Feature","geometry":{"type":"Point","coordinates":[-77.109999000585,39.049837774985]},"properties":{"chain":"Harris Teeter","color":"#007549","name":"North Bethesda Town Center"},"id":114},{"type":"Feature","geometry":{"type":"Point","coordinates":[-76.735217272727,38.979313636364]},"properties":{"chain":"Harris Teeter","color":"#007549","name":"Bowie Marketplace"},"id":115},{"type":"Feature","geometry":{"type":"Point","coordinates":[-76.856386428571,39.092338571429]},"properties":{"chain":"Harris Teeter","color":"#007549","name":"Towne Centre"},"id":116},{"type":"Feature","geometry":{"type":"Point","coordinates":[-76.909587757397,39.148325675094]},"properties":{"chain":"Harris Teeter","color":"#007549","name":"Maple Lawn Market Place"},"id":117},{"type":"Feature","geometry":{"type":"Point","coordinates":[-77.06112262212,39.153442040454]},"properties":{"chain":"Harris Teeter","color":"#007549","name":"Fair Hill Shopping Center"},"id":118},{"type":"Feature","geometry":{"type":"Point","coordinates":[-77.2077309,39.1148589]},"properties":{"chain":"Harris Teeter","color":"#007549","name":"Crown Farm"},"id":119},{"type":"Feature","geometry":{"type":"Point","coordinates":[-77.35508,38.96567]},"properties":{"chain":"Harris Teeter","color":"#007549","name":"Spectrum at Town Center"},"id":120},{"type":"Feature","geometry":{"type":"Point","coordinates":[-77.372289042057,38.871834360704]},"properties":{"chain":"Harris Teeter","color":"#007549","name":"Pender Campus"},"id":121},{"type":"Feature","geometry":{"type":"Point","coordinates":[-76.86369,39.17095]},"properties":{"chain":"Harris Teeter","color":"#007549","name":"Kings Contrivance Village Center"},"id":122},{"type":"Feature","geometry":{"type":"Point","coordinates":[-76.652283636364,38.721009090909]},"properties":{"chain":"Harris Teeter","color":"#007549","name":"The Shoppes at Apple Green"},"id":123},{"type":"Feature","geometry":{"type":"Point","coordinates":[-77.39553,38.94953]},"properties":{"chain":"Harris Teeter","color":"#007549","name":"Woodland Park Crossing Shopping Center"},"id":124},{"type":"Feature","geometry":{"type":"Point","coordinates":[-77.29178,39.10331]},"properties":{"chain":"Harris Teeter","color":"#007549","name":"Darnestown Rd Location"},"id":125},{"type":"Feature","geometry":{"type":"Point","coordinates":[-77.3964973,39.0237614]},"properties":{"chain":"Harris Teeter","color":"#007549","name":"Cascades Overlook"},"id":126},{"type":"Feature","geometry":{"type":"Point","coordinates":[-77.364504730464,38.678846836853]},"properties":{"chain":"Harris Teeter","color":"#007549","name":"The Shops at County Center"},"id":127},{"type":"Feature","geometry":{"type":"Point","coordinates":[-77.45303122449,38.739435306123]},"properties":{"chain":"Harris Teeter","color":"#007549","name":"Hastings Market Place"},"id":128},{"type":"Feature","geometry":{"type":"Point","coordinates":[-77.48865,38.91571]},"properties":{"chain":"Harris Teeter","color":"#007549","name":"East Gate Marketplace"},"id":129},{"type":"Feature","geometry":{"type":"Point","coordinates":[-76.56253,39.09586]},"properties":{"chain":"Harris Teeter","color":"#007549","name":"Magothy Gateway"},"id":130},{"type":"Feature","geometry":{"type":"Point","coordinates":[-77.2507529,39.2302232]},"properties":{"chain":"Harris Teeter","color":"#007549","name":"Clarksburg Village Center"},"id":131},{"type":"Feature","geometry":{"type":"Point","coordinates":[-77.470992307692,39.060407692308]},"properties":{"chain":"Harris Teeter","color":"#007549","name":"Ashbrook Commons Plaza"},"id":132},{"type":"Feature","geometry":{"type":"Point","coordinates":[-77.50489,39.0084]},"properties":{"chain":"Harris Teeter","color":"#007549","name":"Broadlands South"},"id":133},{"type":"Feature","geometry":{"type":"Point","coordinates":[-76.87129,39.2995]},"properties":{"chain":"Harris Teeter","color":"#007549","name":"Town Square at Turf Valley"},"id":134},{"type":"Feature","geometry":{"type":"Point","coordinates":[-77.534826180856,38.986722659131]},"properties":{"chain":"Harris Teeter","color":"#007549","name":"Brambleton Shopping Center"},"id":135},{"type":"Feature","geometry":{"type":"Point","coordinates":[-77.54798,38.93929]},"properties":{"chain":"Harris Teeter","color":"#007549","name":"Stone Ridge"},"id":136},{"type":"Feature","geometry":{"type":"Point","coordinates":[-77.495113309378,39.081378558097]},"properties":{"chain":"Harris Teeter","color":"#007549","name":"Lansdowne"},"id":137},{"type":"Feature","geometry":{"type":"Point","coordinates":[-77.549850671819,38.733445925427]},"properties":{"chain":"Harris Teeter","color":"#007549","name":"Bristow Shopping Center"},"id":138},{"type":"Feature","geometry":{"type":"Point","coordinates":[-77.60961347338,38.809073066282]},"properties":{"chain":"Harris Teeter","color":"#007549","name":"Heritage Hunt"},"id":139},{"type":"Feature","geometry":{"type":"Point","coordinates":[-76.60007,39.26842]},"properties":{"chain":"Harris Teeter","color":"#007549","name":"McHenry Row"},"id":140},{"type":"Feature","geometry":{"type":"Point","coordinates":[-76.564770408163,39.277128163265]},"properties":{"chain":"Harris Teeter","color":"#007549","name":"Canton Crossing"},"id":141},{"type":"Feature","geometry":{"type":"Point","coordinates":[-77.6946561,39.1364862]},"properties":{"chain":"Harris Teeter","color":"#007549","name":"Purcellville Gateway"},"id":142},{"type":"Feature","geometry":{"type":"Point","coordinates":[-77.794005136883,38.73063251617]},"properties":{"chain":"Harris Teeter","color":"#007549","name":"North Rock Shopping Center"},"id":143},{"type":"Feature","geometry":{"type":"Point","coordinates":[-76.52324,38.30131]},"properties":{"chain":"Harris Teeter","color":"#007549","name":"Saint Mary's Marketplace"},"id":144},{"type":"Feature","geometry":{"type":"Point","coordinates":[-76.087820569219,38.783302150554]},"properties":{"chain":"Harris Teeter","color":"#007549","name":"Marketplace at Easton"},"id":145},{"type":"Feature","geometry":{"type":"Point","coordinates":[-78.443776,38.126884]},"properties":{"chain":"Harris Teeter","color":"#007549","name":"Hollymead Town Center"},"id":146},{"type":"Feature","geometry":{"type":"Point","coordinates":[-78.502741970152,38.049476277982]},"properties":{"chain":"Harris Teeter","color":"#007549","name":"Barrack Road"},"id":147},{"type":"Feature","geometry":{"type":"Point","coordinates":[-75.115642384595,38.469456581707]},"properties":{"chain":"Harris Teeter","color":"#007549","name":"Bayside Village Center"},"id":148},{"type":"Feature","geometry":{"type":"Point","coordinates":[-76.758447274313,37.338278718981]},"properties":{"chain":"Harris Teeter","color":"#007549","name":"Lightfoot Marketplace"},"id":149},{"type":"Feature","geometry":{"type":"Point","coordinates":[-78.682574625551,38.052115242284]},"properties":{"chain":"Harris Teeter","color":"#007549","name":"Blue Ridge Shopping Center"},"id":150},{"type":"Feature","geometry":{"type":"Point","coordinates":[-76.765215918327,37.252278449004]},"properties":{"chain":"Harris Teeter","color":"#007549","name":"Governors Green Shopping Center"},"id":151},{"type":"Feature","geometry":{"type":"Point","coordinates":[-76.68393724994,37.248572859627]},"properties":{"chain":"Harris Teeter","color":"#007549","name":"Quarterpath Crossing"},"id":152},{"type":"Feature","geometry":{"type":"Point","coordinates":[-76.492692168692,37.068036506076]},"properties":{"chain":"Harris Teeter","color":"#007549","name":"Warwick Boulevard Location"},"id":153},{"type":"Feature","geometry":{"type":"Point","coordinates":[-76.32681043022,37.056835526954]},"properties":{"chain":"Harris Teeter","color":"#007549","name":"Willow Oaks Village Square"},"id":154},{"type":"Feature","geometry":{"type":"Point","coordinates":[-76.272784860873,36.914268003304]},"properties":{"chain":"Harris Teeter","color":"#007549","name":"Wards Corner"},"id":155},{"type":"Feature","geometry":{"type":"Point","coordinates":[-76.465131,36.861682]},"properties":{"chain":"Harris Teeter","color":"#007549","name":"Bennett's Creek"},"id":156},{"type":"Feature","geometry":{"type":"Point","coordinates":[-76.293497096774,36.865220537634]},"properties":{"chain":"Harris Teeter","color":"#007549","name":"Colonial Avenue"},"id":157},{"type":"Feature","geometry":{"type":"Point","coordinates":[-76.13464444722,36.873957060163]},"properties":{"chain":"Harris Teeter","color":"#007549","name":"Haygood"},"id":158},{"type":"Feature","geometry":{"type":"Point","coordinates":[-76.0376843,36.8755432]},"properties":{"chain":"Harris Teeter","color":"#007549","name":"Great Neck Shopping center"},"id":159},{"type":"Feature","geometry":{"type":"Point","coordinates":[-76.088064210526,36.841755263158]},"properties":{"chain":"Harris Teeter","color":"#007549","name":"Princess Anne Plaza"},"id":160},{"type":"Feature","geometry":{"type":"Point","coordinates":[-75.9804,36.85592]},"properties":{"chain":"Harris Teeter","color":"#007549","name":"Arctic Avenue Location"},"id":161},{"type":"Feature","geometry":{"type":"Point","coordinates":[-76.134396666667,36.80689]},"properties":{"chain":"Harris Teeter","color":"#007549","name":"Brenneman Farm Marketplace"},"id":162},{"type":"Feature","geometry":{"type":"Point","coordinates":[-76.167859047668,36.79496962962]},"properties":{"chain":"Harris Teeter","color":"#007549","name":"Indian Lakes Crossing"},"id":163},{"type":"Feature","geometry":{"type":"Point","coordinates":[-76.227997027027,36.769810810811]},"properties":{"chain":"Harris Teeter","color":"#007549","name":"Greenbrier Market"},"id":164},{"type":"Feature","geometry":{"type":"Point","coordinates":[-76.203604301268,36.764340108879]},"properties":{"chain":"Harris Teeter","color":"#007549","name":"Orchard Square"},"id":165},{"type":"Feature","geometry":{"type":"Point","coordinates":[-76.063804210526,36.754095263158]},"properties":{"chain":"Harris Teeter","color":"#007549","name":"Courthouse Marketplace"},"id":166},{"type":"Feature","geometry":{"type":"Point","coordinates":[-76.010081872223,36.752492845488]},"properties":{"chain":"Harris Teeter","color":"#007549","name":"Sandbridge Commons"},"id":167},{"type":"Feature","geometry":{"type":"Point","coordinates":[-76.223808332274,36.687690761844]},"properties":{"chain":"Harris Teeter","color":"#007549","name":"Hanbury Village"},"id":168},{"type":"Feature","geometry":{"type":"Point","coordinates":[-75.649720816326,35.994919183674]},"properties":{"chain":"Harris Teeter","color":"#007549","name":"Kill Devil Hills Shopping Center - Mile Marker 9.75"},"id":169},{"type":"Feature","geometry":{"type":"Point","coordinates":[-78.519299622928,36.008995340922]},"properties":{"chain":"Harris Teeter","color":"#007549","name":"Harris Crossing"},"id":170},{"type":"Feature","geometry":{"type":"Point","coordinates":[-78.504023625298,35.945117761553]},"properties":{"chain":"Harris Teeter","color":"#007549","name":"Heritage Lake"},"id":171},{"type":"Feature","geometry":{"type":"Point","coordinates":[-78.543121515151,35.947502020202]},"properties":{"chain":"Harris Teeter","color":"#007549","name":"Wakefield"},"id":172},{"type":"Feature","geometry":{"type":"Point","coordinates":[-78.693269,35.9905]},"properties":{"chain":"Harris Teeter","color":"#007549","name":"Creedmoor Village"},"id":173},{"type":"Feature","geometry":{"type":"Point","coordinates":[-78.906827,36.069153]},"properties":{"chain":"Harris Teeter","color":"#007549","name":"Riverview Shopping Center"},"id":174},{"type":"Feature","geometry":{"type":"Point","coordinates":[-78.92913,36.05746]},"properties":{"chain":"Harris Teeter","color":"#007549","name":"Willowhaven Shopping Center"},"id":175},{"type":"Feature","geometry":{"type":"Point","coordinates":[-77.96301,35.74307]},"properties":{"chain":"Harris Teeter","color":"#007549","name":"Heritage Crossing Shopping Center"},"id":176},{"type":"Feature","geometry":{"type":"Point","coordinates":[-78.920536,36.029458]},"properties":{"chain":"Harris Teeter","color":"#007549","name":"North Pointe"},"id":177},{"type":"Feature","geometry":{"type":"Point","coordinates":[-78.602347728772,35.905486813684]},"properties":{"chain":"Harris Teeter","color":"#007549","name":"Falls Pointe Shopping Center"},"id":178},{"type":"Feature","geometry":{"type":"Point","coordinates":[-78.923344274116,36.010423449053]},"properties":{"chain":"Harris Teeter","color":"#007549","name":"Erwin Square"},"id":179},{"type":"Feature","geometry":{"type":"Point","coordinates":[-78.948241,36.018922]},"properties":{"chain":"Harris Teeter","color":"#007549","name":"Durham Festival Center"},"id":180},{"type":"Feature","geometry":{"type":"Point","coordinates":[-78.681087021007,35.901019996828]},"properties":{"chain":"Harris Teeter","color":"#007549","name":"Towne North"},"id":181},{"type":"Feature","geometry":{"type":"Point","coordinates":[-78.725875082955,35.906889392303]},"properties":{"chain":"Harris Teeter","color":"#007549","name":"Leesville Town Center"},"id":182},{"type":"Feature","geometry":{"type":"Point","coordinates":[-78.6796,35.88785]},"properties":{"chain":"Harris Teeter","color":"#007549","name":"Stonehenge Market"},"id":183},{"type":"Feature","geometry":{"type":"Point","coordinates":[-78.788033,35.9192311]},"properties":{"chain":"Harris Teeter","color":"#007549","name":"The Corners at Brier Creek"},"id":184},{"type":"Feature","geometry":{"type":"Point","coordinates":[-78.678262666667,35.85732]},"properties":{"chain":"Harris Teeter","color":"#007549","name":"The Point at Creedmoor"},"id":185},{"type":"Feature","geometry":{"type":"Point","coordinates":[-78.958114679673,35.96079029248]},"properties":{"chain":"Harris Teeter","color":"#007549","name":"Commons at University Place"},"id":186},{"type":"Feature","geometry":{"type":"Point","coordinates":[-78.63906735328,35.838509774277]},"properties":{"chain":"Harris Teeter","color":"#007549","name":"North Hills East"},"id":187},{"type":"Feature","geometry":{"type":"Point","coordinates":[-77.381114070442,35.579691865741]},"properties":{"chain":"Harris Teeter","color":"#007549","name":"University Commons"},"id":188},{"type":"Feature","geometry":{"type":"Point","coordinates":[-77.34972,35.56735]},"properties":{"chain":"Harris Teeter","color":"#007549","name":"Bells Fork Shopping Center"},"id":189},{"type":"Feature","geometry":{"type":"Point","coordinates":[-78.705630625,35.825300625]},"properties":{"chain":"Harris Teeter","color":"#007549","name":"Old Raleigh Village"},"id":190},{"type":"Feature","geometry":{"type":"Point","coordinates":[-78.936125,35.912543]},"properties":{"chain":"Harris Teeter","color":"#007549","name":"Southpoint Crossing"},"id":191},{"type":"Feature","geometry":{"type":"Point","coordinates":[-79.05829,35.96396]},"properties":{"chain":"Harris Teeter","color":"#007549","name":"Chapel Hill North"},"id":192},{"type":"Feature","geometry":{"type":"Point","coordinates":[-78.9592423,35.9186183]},"properties":{"chain":"Harris Teeter","color":"#007549","name":"Hope Valley Commons"},"id":193},{"type":"Feature","geometry":{"type":"Point","coordinates":[-78.662843044874,35.791407812476]},"properties":{"chain":"Harris Teeter","color":"#007549","name":"Cameron Village"},"id":194},{"type":"Feature","geometry":{"type":"Point","coordinates":[-79.02499,35.92512]},"properties":{"chain":"Harris Teeter","color":"#007549","name":"University Mall"},"id":195},{"type":"Feature","geometry":{"type":"Point","coordinates":[-79.011947184451,35.905949790547]},"properties":{"chain":"Harris Teeter","color":"#007549","name":"Meadowmont Village"},"id":196},{"type":"Feature","geometry":{"type":"Point","coordinates":[-78.856015646445,35.838035794124]},"properties":{"chain":"Harris Teeter","color":"#007549","name":"McCrimmon Corners"},"id":197},{"type":"Feature","geometry":{"type":"Point","coordinates":[-78.780881333333,35.804924666667]},"properties":{"chain":"Harris Teeter","color":"#007549","name":"Harrison Pointe Shopping Center"},"id":198},{"type":"Feature","geometry":{"type":"Point","coordinates":[-78.887694,35.843886]},"properties":{"chain":"Harris Teeter","color":"#007549","name":"Parkside Town Commons"},"id":199},{"type":"Feature","geometry":{"type":"Point","coordinates":[-78.347505,35.656084]},"properties":{"chain":"Harris Teeter","color":"#007549","name":"Flowers Crossroads"},"id":200},{"type":"Feature","geometry":{"type":"Point","coordinates":[-78.766284307692,35.773922307692]},"properties":{"chain":"Harris Teeter","color":"#007549","name":"Village Square by Cary Towne Center Mall"},"id":201},{"type":"Feature","geometry":{"type":"Point","coordinates":[-78.902295316299,35.821295381509]},"properties":{"chain":"Harris Teeter","color":"#007549","name":"Cary Park Town Center"},"id":202},{"type":"Feature","geometry":{"type":"Point","coordinates":[-78.812055,35.785186]},"properties":{"chain":"Harris Teeter","color":"#007549","name":"Maynard Crossing"},"id":203},{"type":"Feature","geometry":{"type":"Point","coordinates":[-78.85099,35.79095]},"properties":{"chain":"Harris Teeter","color":"#007549","name":"Stone Creek Village"},"id":204},{"type":"Feature","geometry":{"type":"Point","coordinates":[-79.4851324944,36.08073952676]},"properties":{"chain":"Harris Teeter","color":"#007549","name":"New Market Square"},"id":205},{"type":"Feature","geometry":{"type":"Point","coordinates":[-78.743455102041,35.746654897959]},"properties":{"chain":"Harris Teeter","color":"#007549","name":"Tryon Village Shopping Center"},"id":206},{"type":"Feature","geometry":{"type":"Point","coordinates":[-78.779538197532,35.736552595128]},"properties":{"chain":"Harris Teeter","color":"#007549","name":"Crescent Commons"},"id":207},{"type":"Feature","geometry":{"type":"Point","coordinates":[-78.8221965,35.7439521]},"properties":{"chain":"Harris Teeter","color":"#007549","name":"Lake Pine Plaza"},"id":208},{"type":"Feature","geometry":{"type":"Point","coordinates":[-79.087623066552,35.831128914995]},"properties":{"chain":"Harris Teeter","color":"#007549","name":"Chatham Downs Shopping Center"},"id":209},{"type":"Feature","geometry":{"type":"Point","coordinates":[-78.8639,35.73731]},"properties":{"chain":"Harris Teeter","color":"#007549","name":"Haddon Hall Commons"},"id":210},{"type":"Feature","geometry":{"type":"Point","coordinates":[-78.792825714286,35.702945714286]},"properties":{"chain":"Harris Teeter","color":"#007549","name":"Stonebridge Village"},"id":211},{"type":"Feature","geometry":{"type":"Point","coordinates":[-78.71331,35.63872]},"properties":{"chain":"Harris Teeter","color":"#007549","name":"Kings Grant Shopping Center"},"id":212},{"type":"Feature","geometry":{"type":"Point","coordinates":[-78.79632,35.664686521739]},"properties":{"chain":"Harris Teeter","color":"#007549","name":"Sunset Lake Commons"},"id":213},{"type":"Feature","geometry":{"type":"Point","coordinates":[-79.79601,36.13178]},"properties":{"chain":"Harris Teeter","color":"#007549","name":"North Elm Village"},"id":214},{"type":"Feature","geometry":{"type":"Point","coordinates":[-78.838023271493,35.64026607563]},"properties":{"chain":"Harris Teeter","color":"#007549","name":"Southpark Village"},"id":215},{"type":"Feature","geometry":{"type":"Point","coordinates":[-79.869503140384,36.147618945991]},"properties":{"chain":"Harris Teeter","color":"#007549","name":"The Shoppes at Battleground Oaks"},"id":216},{"type":"Feature","geometry":{"type":"Point","coordinates":[-77.96478876384,35.397445601105]},"properties":{"chain":"Harris Teeter","color":"#007549","name":"Memorial Commons"},"id":217},{"type":"Feature","geometry":{"type":"Point","coordinates":[-79.819102155778,36.102983653259]},"properties":{"chain":"Harris Teeter","color":"#007549","name":"Lawndale Crossing Shopping Center"},"id":218},{"type":"Feature","geometry":{"type":"Point","coordinates":[-78.776714873661,35.594176145334]},"properties":{"chain":"Harris Teeter","color":"#007549","name":"Fuquay Crossing"},"id":219},{"type":"Feature","geometry":{"type":"Point","coordinates":[-79.836936313915,36.085173326246]},"properties":{"chain":"Harris Teeter","color":"#007549","name":"The Shops at Friendly Center"},"id":220},{"type":"Feature","geometry":{"type":"Point","coordinates":[-79.89002,36.08823]},"properties":{"chain":"Harris Teeter","color":"#007549","name":"Guilford College Location"},"id":221},{"type":"Feature","geometry":{"type":"Point","coordinates":[-79.89716,36.0164172]},"properties":{"chain":"Harris Teeter","color":"#007549","name":"Adams Farm"},"id":222},{"type":"Feature","geometry":{"type":"Point","coordinates":[-79.970555555556,36.031905555556]},"properties":{"chain":"Harris Teeter","color":"#007549","name":"Oak Hollow Square"},"id":223},{"type":"Feature","geometry":{"type":"Point","coordinates":[-80.095212051282,36.108854358974]},"properties":{"chain":"Harris Teeter","color":"#007549","name":"Kernersville Marketplace"},"id":224},{"type":"Feature","geometry":{"type":"Point","coordinates":[-80.017713377038,35.983290887146]},"properties":{"chain":"Harris Teeter","color":"#007549","name":"High Point Mall"},"id":225},{"type":"Feature","geometry":{"type":"Point","coordinates":[-77.1033007,35.0952441]},"properties":{"chain":"Harris Teeter","color":"#007549","name":"New Bern Marketplace"},"id":226},{"type":"Feature","geometry":{"type":"Point","coordinates":[-80.299273647146,36.143804023587]},"properties":{"chain":"Harris Teeter","color":"#007549","name":"Pine Ridge Plaza"},"id":227},{"type":"Feature","geometry":{"type":"Point","coordinates":[-80.275023472222,36.09012125]},"properties":{"chain":"Harris Teeter","color":"#007549","name":"Cloverdale"},"id":228},{"type":"Feature","geometry":{"type":"Point","coordinates":[-80.313497636373,36.117878835579]},"properties":{"chain":"Harris Teeter","color":"#007549","name":"Whitaker Square"},"id":229},{"type":"Feature","geometry":{"type":"Point","coordinates":[-80.347013673469,36.083139387755]},"properties":{"chain":"Harris Teeter","color":"#007549","name":"Harper Hill Commons"},"id":230},{"type":"Feature","geometry":{"type":"Point","coordinates":[-77.01227,35.02007]},"properties":{"chain":"Harris Teeter","color":"#007549","name":"Carolina Colours Towne Centre"},"id":231},{"type":"Feature","geometry":{"type":"Point","coordinates":[-80.407106689655,36.01862666313]},"properties":{"chain":"Harris Teeter","color":"#007549","name":"Tanglewood Commons"},"id":232},{"type":"Feature","geometry":{"type":"Point","coordinates":[-79.3966971,35.228455]},"properties":{"chain":"Harris Teeter","color":"#007549","name":"Mill Creek Shopping Center"},"id":233},{"type":"Feature","geometry":{"type":"Point","coordinates":[-78.92435,35.04553]},"properties":{"chain":"Harris Teeter","color":"#007549","name":"Highland Centre"},"id":234},{"type":"Feature","geometry":{"type":"Point","coordinates":[-76.8007,34.73667]},"properties":{"chain":"Harris Teeter","color":"#007549","name":"Governor's Station"},"id":235},{"type":"Feature","geometry":{"type":"Point","coordinates":[-79.48608,35.20537]},"properties":{"chain":"Harris Teeter","color":"#007549","name":"Harris Teeter at PineCroft"},"id":236},{"type":"Feature","geometry":{"type":"Point","coordinates":[-79.418351203034,35.15657378452]},"properties":{"chain":"Harris Teeter","color":"#007549","name":"Center Park Plaza"},"id":237},{"type":"Feature","geometry":{"type":"Point","coordinates":[-79.0136647,34.9827937]},"properties":{"chain":"Harris Teeter","color":"#007549","name":"Hope Mills"},"id":238},{"type":"Feature","geometry":{"type":"Point","coordinates":[-80.499387833971,35.667522043913]},"properties":{"chain":"Harris Teeter","color":"#007549","name":"Alexander Pointe"},"id":239},{"type":"Feature","geometry":{"type":"Point","coordinates":[-77.602972145697,34.451890498012]},"properties":{"chain":"Harris Teeter","color":"#007549","name":"Surf City Crossing"},"id":240},{"type":"Feature","geometry":{"type":"Point","coordinates":[-80.89635244898,35.602613877551]},"properties":{"chain":"Harris Teeter","color":"#007549","name":"The Village at Byers Creek"},"id":241},{"type":"Feature","geometry":{"type":"Point","coordinates":[-80.87572,35.58643]},"properties":{"chain":"Harris Teeter","color":"#007549","name":"Morrison Plantation"},"id":242},{"type":"Feature","geometry":{"type":"Point","coordinates":[-80.665121341514,35.410755099184]},"properties":{"chain":"Harris Teeter","color":"#007549","name":"Coddle Creek Village"},"id":243},{"type":"Feature","geometry":{"type":"Point","coordinates":[-80.762844520548,35.442199589041]},"properties":{"chain":"Harris Teeter","color":"#007549","name":"Renaissance Square"},"id":244},{"type":"Feature","geometry":{"type":"Point","coordinates":[-81.6625,36.20283]},"properties":{"chain":"Harris Teeter","color":"#007549","name":"Shops at Shadowline"},"id":245},{"type":"Feature","geometry":{"type":"Point","coordinates":[-80.85997,35.5009]},"properties":{"chain":"Harris Teeter","color":"#007549","name":"Davidson Commons"},"id":246},{"type":"Feature","geometry":{"type":"Point","coordinates":[-80.74572,35.41851]},"properties":{"chain":"Harris Teeter","color":"#007549","name":"Cannon Crossroads"},"id":247},{"type":"Feature","geometry":{"type":"Point","coordinates":[-80.856628928962,35.481224971366]},"properties":{"chain":"Harris Teeter","color":"#007549","name":"Antiquity Town Center"},"id":248},{"type":"Feature","geometry":{"type":"Point","coordinates":[-80.894248197701,35.479089357854]},"properties":{"chain":"Harris Teeter","color":"#007549","name":"Jetton Village"},"id":249},{"type":"Feature","geometry":{"type":"Point","coordinates":[-80.675622456873,35.316951276355]},"properties":{"chain":"Harris Teeter","color":"#007549","name":"Caldwell Crossing"},"id":250},{"type":"Feature","geometry":{"type":"Point","coordinates":[-77.790755188596,34.299064714809]},"properties":{"chain":"Harris Teeter","color":"#007549","name":"Oak Landing Shopping Center"},"id":251},{"type":"Feature","geometry":{"type":"Point","coordinates":[-80.7828339,35.3714943]},"properties":{"chain":"Harris Teeter","color":"#007549","name":"The Shops at Highland Creek"},"id":252},{"type":"Feature","geometry":{"type":"Point","coordinates":[-80.89603814745,35.443818690613]},"properties":{"chain":"Harris Teeter","color":"#007549","name":"Regency Village"},"id":253},{"type":"Feature","geometry":{"type":"Point","coordinates":[-80.66892274796,35.283178451645]},"properties":{"chain":"Harris Teeter","color":"#007549","name":"Brookdale Shopping Center"},"id":254},{"type":"Feature","geometry":{"type":"Point","coordinates":[-80.862646122449,35.408574285714]},"properties":{"chain":"Harris Teeter","color":"#007549","name":"Rosedale"},"id":255},{"type":"Feature","geometry":{"type":"Point","coordinates":[-80.73907,35.29765]},"properties":{"chain":"Harris Teeter","color":"#007549","name":"Town Center Plaza"},"id":256},{"type":"Feature","geometry":{"type":"Point","coordinates":[-80.811476086651,35.333996248277]},"properties":{"chain":"Harris Teeter","color":"#007549","name":"Shoppes at Davis Lake"},"id":257},{"type":"Feature","geometry":{"type":"Point","coordinates":[-80.9968556,35.4445096]},"properties":{"chain":"Harris Teeter","color":"#007549","name":"Waterside Crossing"},"id":258},{"type":"Feature","geometry":{"type":"Point","coordinates":[-77.831025555556,34.235278888889]},"properties":{"chain":"Harris Teeter","color":"#007549","name":"Mayfaire"},"id":259},{"type":"Feature","geometry":{"type":"Point","coordinates":[-77.820977796646,34.222538822345]},"properties":{"chain":"Harris Teeter","color":"#007549","name":"Lumina Commons"},"id":260},{"type":"Feature","geometry":{"type":"Point","coordinates":[-77.90576,34.21676]},"properties":{"chain":"Harris Teeter","color":"#007549","name":"Hanover Center"},"id":261},{"type":"Feature","geometry":{"type":"Point","coordinates":[-80.661844285714,35.170797142857]},"properties":{"chain":"Harris Teeter","color":"#007549","name":"Mint Hill Pavilion"},"id":262},{"type":"Feature","geometry":{"type":"Point","coordinates":[-78.018553589636,34.217954688675]},"properties":{"chain":"Harris Teeter","color":"#007549","name":"Waterford Commercial Center"},"id":263},{"type":"Feature","geometry":{"type":"Point","coordinates":[-77.889320640368,34.195099561581]},"properties":{"chain":"Harris Teeter","color":"#007549","name":"Long Leaf Mall"},"id":264},{"type":"Feature","geometry":{"type":"Point","coordinates":[-80.94062891,35.32769384]},"properties":{"chain":"Harris Teeter","color":"#007549","name":"Riverbend Village"},"id":265},{"type":"Feature","geometry":{"type":"Point","coordinates":[-80.651959536433,35.123599006629]},"properties":{"chain":"Harris Teeter","color":"#007549","name":"Idlewild Market"},"id":266},{"type":"Feature","geometry":{"type":"Point","coordinates":[-80.81012,35.22024]},"properties":{"chain":"Harris Teeter","color":"#007549","name":"Central Avenue"},"id":267},{"type":"Feature","geometry":{"type":"Point","coordinates":[-80.708502537252,35.123975381484]},"properties":{"chain":"Harris Teeter","color":"#007549","name":"Matthews Festival"},"id":268},{"type":"Feature","geometry":{"type":"Point","coordinates":[-80.826822874816,35.195530756518]},"properties":{"chain":"Harris Teeter","color":"#007549","name":"Myers Park Shopping Center"},"id":269},{"type":"Feature","geometry":{"type":"Point","coordinates":[-80.79845900022,35.175895249945]},"properties":{"chain":"Harris Teeter","color":"#007549","name":"Cotswold Village"},"id":270},{"type":"Feature","geometry":{"type":"Point","coordinates":[-80.845828095238,35.202825714286]},"properties":{"chain":"Harris Teeter","color":"#007549","name":"Kenilworth Commons"},"id":271},{"type":"Feature","geometry":{"type":"Point","coordinates":[-80.866179795918,35.201098571429]},"properties":{"chain":"Harris Teeter","color":"#007549","name":"Sedgefield Shopping Center"},"id":272},{"type":"Feature","geometry":{"type":"Point","coordinates":[-77.899896947121,34.125279769213]},"properties":{"chain":"Harris Teeter","color":"#007549","name":"Beau Rivage Marketplace"},"id":273},{"type":"Feature","geometry":{"type":"Point","coordinates":[-80.647482414201,35.048639097822]},"properties":{"chain":"Harris Teeter","color":"#007549","name":"The Shops at Sun Valley"},"id":274},{"type":"Feature","geometry":{"type":"Point","coordinates":[-80.82687,35.15274]},"properties":{"chain":"Harris Teeter","color":"#007549","name":"Morrocroft Village"},"id":275},{"type":"Feature","geometry":{"type":"Point","coordinates":[-80.699134,35.069124]},"properties":{"chain":"Harris Teeter","color":"#007549","name":"Austin Village"},"id":276},{"type":"Feature","geometry":{"type":"Point","coordinates":[-80.731317584445,35.083137768687]},"properties":{"chain":"Harris Teeter","color":"#007549","name":"Plantation Market"},"id":277},{"type":"Feature","geometry":{"type":"Point","coordinates":[-80.784513,35.09783175]},"properties":{"chain":"Harris Teeter","color":"#007549","name":"Arboretum"},"id":278},{"type":"Feature","geometry":{"type":"Point","coordinates":[-80.80804229377,35.106093985384]},"properties":{"chain":"Harris Teeter","color":"#007549","name":"Colony Place"},"id":279},{"type":"Feature","geometry":{"type":"Point","coordinates":[-80.77030375,35.0661425]},"properties":{"chain":"Harris Teeter","color":"#007549","name":"Providence Commons"},"id":280},{"type":"Feature","geometry":{"type":"Point","coordinates":[-80.856300412755,35.116094617738]},"properties":{"chain":"Harris Teeter","color":"#007549","name":"Quail Corners"},"id":281},{"type":"Feature","geometry":{"type":"Point","coordinates":[-80.77151,35.05426]},"properties":{"chain":"Harris Teeter","color":"#007549","name":"Rea Farms Shopping Center"},"id":282},{"type":"Feature","geometry":{"type":"Point","coordinates":[-81.03758,35.22378]},"properties":{"chain":"Harris Teeter","color":"#007549","name":"Belmont Town Center"},"id":283},{"type":"Feature","geometry":{"type":"Point","coordinates":[-80.699951040548,35.001132835907]},"properties":{"chain":"Harris Teeter","color":"#007549","name":"Village Commons at Wesley Chapel"},"id":284},{"type":"Feature","geometry":{"type":"Point","coordinates":[-80.813453014457,35.060724384664]},"properties":{"chain":"Harris Teeter","color":"#007549","name":"Stonecrest Shopping Center"},"id":285},{"type":"Feature","geometry":{"type":"Point","coordinates":[-80.9730675,35.1602009]},"properties":{"chain":"Harris Teeter","color":"#007549","name":"Berewick Town Center"},"id":286},{"type":"Feature","geometry":{"type":"Point","coordinates":[-80.805031285164,35.037047319365]},"properties":{"chain":"Harris Teeter","color":"#007549","name":"The Shops at Blakeney"},"id":287},{"type":"Feature","geometry":{"type":"Point","coordinates":[-80.849556122449,35.052135306123]},"properties":{"chain":"Harris Teeter","color":"#007549","name":"Ballantyne Commons"},"id":288},{"type":"Feature","geometry":{"type":"Point","coordinates":[-80.848939893291,35.022429146328]},"properties":{"chain":"Harris Teeter","color":"#007549","name":"The Shoppes at Ardrey Kell"},"id":289},{"type":"Feature","geometry":{"type":"Point","coordinates":[-80.989408118812,35.102443267327]},"properties":{"chain":"Harris Teeter","color":"#007549","name":"Steele Croft"},"id":290},{"type":"Feature","geometry":{"type":"Point","coordinates":[-80.759251592472,34.955217937609]},"properties":{"chain":"Harris Teeter","color":"#007549","name":"Cureton Town Center"},"id":291},{"type":"Feature","geometry":{"type":"Point","coordinates":[-81.1595,35.21646]},"properties":{"chain":"Harris Teeter","color":"#007549","name":"Kendrick Crossing"},"id":292},{"type":"Feature","geometry":{"type":"Point","coordinates":[-80.9353753,35.0579914]},"properties":{"chain":"Harris Teeter","color":"#007549","name":"Springfield Town Center"},"id":293},{"type":"Feature","geometry":{"type":"Point","coordinates":[-80.993408734498,35.062967990593]},"properties":{"chain":"Harris Teeter","color":"#007549","name":"Stockbridge Commons"},"id":294},{"type":"Feature","geometry":{"type":"Point","coordinates":[-80.971301294092,35.033777966807]},"properties":{"chain":"Harris Teeter","color":"#007549","name":"West Town Market"},"id":295},{"type":"Feature","geometry":{"type":"Point","coordinates":[-80.838133333333,34.93715]},"properties":{"chain":"Harris Teeter","color":"#007549","name":"Carolina Commons"},"id":296},{"type":"Feature","geometry":{"type":"Point","coordinates":[-81.02792,34.97599]},"properties":{"chain":"Harris Teeter","color":"#007549","name":"Northwood Square"},"id":297},{"type":"Feature","geometry":{"type":"Point","coordinates":[-79.80672,34.18853]},"properties":{"chain":"Harris Teeter","color":"#007549","name":"Cashua Place"},"id":298},{"type":"Feature","geometry":{"type":"Point","coordinates":[-82.55312,35.604076666667]},"properties":{"chain":"Harris Teeter","color":"#007549","name":"Village at Chestnut Street"},"id":299},{"type":"Feature","geometry":{"type":"Point","coordinates":[-82.455471376773,35.306967822846]},"properties":{"chain":"Harris Teeter","color":"#007549","name":"Southside Square Plaza"},"id":300},{"type":"Feature","geometry":{"type":"Point","coordinates":[-82.3987008,34.8279736]},"properties":{"chain":"Harris Teeter","color":"#007549","name":"Lewis Plaza"},"id":301},{"type":"Feature","geometry":{"type":"Point","coordinates":[-79.820956585366,32.899537317073]},"properties":{"chain":"Harris Teeter","color":"#007549","name":"Rivertowne Place"},"id":302},{"type":"Feature","geometry":{"type":"Point","coordinates":[-80.184005700922,32.999308504733]},"properties":{"chain":"Harris Teeter","color":"#007549","name":"Sawmill Village"},"id":303},{"type":"Feature","geometry":{"type":"Point","coordinates":[-79.816648522487,32.839924070467]},"properties":{"chain":"Harris Teeter","color":"#007549","name":"Six Mile Marketplace"},"id":304},{"type":"Feature","geometry":{"type":"Point","coordinates":[-80.14873,32.93966]},"properties":{"chain":"Harris Teeter","color":"#007549","name":"Wescott Plantation"},"id":305},{"type":"Feature","geometry":{"type":"Point","coordinates":[-79.859206,32.840658]},"properties":{"chain":"Harris Teeter","color":"#007549","name":"Long Point"},"id":306},{"type":"Feature","geometry":{"type":"Point","coordinates":[-79.815439591837,32.822385510204]},"properties":{"chain":"Harris Teeter","color":"#007549","name":"Seaside Farms"},"id":307},{"type":"Feature","geometry":{"type":"Point","coordinates":[-79.858659130727,32.79427752514]},"properties":{"chain":"Harris Teeter","color":"#007549","name":"Sea Island Shopping Center"},"id":308},{"type":"Feature","geometry":{"type":"Point","coordinates":[-79.889970639839,32.802018080482]},"properties":{"chain":"Harris Teeter","color":"#007549","name":"Village Pointe"},"id":309},{"type":"Feature","geometry":{"type":"Point","coordinates":[-80.08496625,32.82621791]},"properties":{"chain":"Harris Teeter","color":"#007549","name":"Bees Ferry"},"id":310},{"type":"Feature","geometry":{"type":"Point","coordinates":[-80.01962,32.80037]},"properties":{"chain":"Harris Teeter","color":"#007549","name":"Westwood Plaza"},"id":311},{"type":"Feature","geometry":{"type":"Point","coordinates":[-79.989489795918,32.782678367347]},"properties":{"chain":"Harris Teeter","color":"#007549","name":"St. Andrews Shopping Center"},"id":312},{"type":"Feature","geometry":{"type":"Point","coordinates":[-79.97719,32.76271]},"properties":{"chain":"Harris Teeter","color":"#007549","name":"James Island Center"},"id":313},{"type":"Feature","geometry":{"type":"Point","coordinates":[-79.936468250559,32.742621641474]},"properties":{"chain":"Harris Teeter","color":"#007549","name":"Harbor View Shopping Center"},"id":314},{"type":"Feature","geometry":{"type":"Point","coordinates":[-79.970485488368,32.746300059527]},"properties":{"chain":"Harris Teeter","color":"#007549","name":"Oakpoint Center"},"id":315},{"type":"Feature","geometry":{"type":"Point","coordinates":[-79.959951082964,32.686128255015]},"properties":{"chain":"Harris Teeter","color":"#007549","name":"Folly Road Crossing-Folly Beach"},"id":316},{"type":"Feature","geometry":{"type":"Point","coordinates":[-80.722413598417,32.216061526649]},"properties":{"chain":"Harris Teeter","color":"#007549","name":"Main Street Village"},"id":317},{"type":"Feature","geometry":{"type":"Point","coordinates":[-80.764020984902,32.153144398115]},"properties":{"chain":"Harris Teeter","color":"#007549","name":"Park Plaza Shopping Center"},"id":318},{"type":"Feature","geometry":{"type":"Point","coordinates":[-81.37877,31.18396]},"properties":{"chain":"Harris Teeter","color":"#007549","name":"Shops at Sea Island"},"id":319},{"type":"Feature","geometry":{"type":"Point","coordinates":[-81.45799,30.59124]},"properties":{"chain":"Harris Teeter","color":"#007549","name":"Shops at Amelia Market"},"id":320},{"type":"Feature","geometry":{"type":"Point","coordinates":[-151.049127,60.4895056]},"properties":{"chain":"Fred Meyer","color":"#ed1c24","name":"Soldotna"},"id":24522},{"type":"Feature","geometry":{"type":"Point","coordinates":[-149.9193,61.1360204]},"properties":{"chain":"Fred Meyer","color":"#ed1c24","name":"Dimond"},"id":24523},{"type":"Feature","geometry":{"type":"Point","coordinates":[-149.8384764,61.135933]},"properties":{"chain":"Fred Meyer","color":"#ed1c24","name":"Southeast Anchorage"},"id":24524},{"type":"Feature","geometry":{"type":"Point","coordinates":[-149.8638144,61.1944795]},"properties":{"chain":"Fred Meyer","color":"#ed1c24","name":"Anchorage"},"id":24525},{"type":"Feature","geometry":{"type":"Point","coordinates":[-149.736778,61.2115203]},"properties":{"chain":"Fred Meyer","color":"#ed1c24","name":"Muldoon"},"id":24526},{"type":"Feature","geometry":{"type":"Point","coordinates":[-149.5555532,61.3413164]},"properties":{"chain":"Fred Meyer","color":"#ed1c24","name":"Eagle River"},"id":24527},{"type":"Feature","geometry":{"type":"Point","coordinates":[-149.4091169,61.5795419]},"properties":{"chain":"Fred Meyer","color":"#ed1c24","name":"Wasilla"},"id":24528},{"type":"Feature","geometry":{"type":"Point","coordinates":[-149.1249084,61.6004753]},"properties":{"chain":"Fred Meyer","color":"#ed1c24","name":"Palmer"},"id":24529},{"type":"Feature","geometry":{"type":"Point","coordinates":[-147.8176451,64.8353652]},"properties":{"chain":"Fred Meyer","color":"#ed1c24","name":"West Fairbanks"},"id":24530},{"type":"Feature","geometry":{"type":"Point","coordinates":[-147.6904112,64.8547239]},"properties":{"chain":"Fred Meyer","color":"#ed1c24","name":"East Fairbanks"},"id":24531},{"type":"Feature","geometry":{"type":"Point","coordinates":[-134.561529,58.3594856]},"properties":{"chain":"Fred Meyer","color":"#ed1c24","name":"Juneau"},"id":24532},{"type":"Feature","geometry":{"type":"Point","coordinates":[-122.5116232,48.7884657]},"properties":{"chain":"Fred Meyer","color":"#ed1c24","name":"North Bellingham"},"id":24533},{"type":"Feature","geometry":{"type":"Point","coordinates":[-122.4645617,48.7434772]},"properties":{"chain":"Fred Meyer","color":"#ed1c24","name":"Bellingham"},"id":24534},{"type":"Feature","geometry":{"type":"Point","coordinates":[-122.3335066,48.4667448]},"properties":{"chain":"Fred Meyer","color":"#ed1c24","name":"Burlington"},"id":24535},{"type":"Feature","geometry":{"type":"Point","coordinates":[-122.3594418,48.2410153]},"properties":{"chain":"QFC","color":"#FFDF1B","name":"Stanwood"},"id":24536},{"type":"Feature","geometry":{"type":"Point","coordinates":[-123.1257421,47.2330883]},"properties":{"chain":"Fred Meyer","color":"#ed1c24","name":"Shelton"},"id":24537},{"type":"Feature","geometry":{"type":"Point","coordinates":[-123.9031092,46.160422]},"properties":{"chain":"Fred Meyer","color":"#ed1c24","name":"North Coast"},"id":24538},{"type":"Feature","geometry":{"type":"Point","coordinates":[-122.6265172,47.609617]},"properties":{"chain":"Fred Meyer","color":"#ed1c24","name":"Kitsap"},"id":24539},{"type":"Feature","geometry":{"type":"Point","coordinates":[-122.6292304,47.5032857]},"properties":{"chain":"Fred Meyer","color":"#ed1c24","name":"Port Orchard"},"id":24540},{"type":"Feature","geometry":{"type":"Point","coordinates":[-122.1696979,48.0853027]},"properties":{"chain":"Fred Meyer","color":"#ed1c24","name":"Marysville"},"id":24541},{"type":"Feature","geometry":{"type":"Point","coordinates":[-122.367671,47.7913701]},"properties":{"chain":"QFC","color":"#FFDF1B","name":"Edmonds"},"id":24542},{"type":"Feature","geometry":{"type":"Point","coordinates":[-122.2878855,47.891189]},"properties":{"chain":"QFC","color":"#FFDF1B","name":"Harbour Pointe"},"id":24543},{"type":"Feature","geometry":{"type":"Point","coordinates":[-122.2316197,47.9206159]},"properties":{"chain":"Fred Meyer","color":"#ed1c24","name":"Everett"},"id":24544},{"type":"Feature","geometry":{"type":"Point","coordinates":[-122.3477418,47.7621166]},"properties":{"chain":"Fred Meyer","color":"#ed1c24","name":"Shoreline"},"id":24545},{"type":"Feature","geometry":{"type":"Point","coordinates":[-122.2955091,47.8221703]},"properties":{"chain":"Fred Meyer","color":"#ed1c24","name":"Lynnwood"},"id":24546},{"type":"Feature","geometry":{"type":"Point","coordinates":[-122.2729081,47.8475416]},"properties":{"chain":"Fred Meyer","color":"#ed1c24","name":"Alderwood"},"id":24547},{"type":"Feature","geometry":{"type":"Point","coordinates":[-122.9146539,46.998181]},"properties":{"chain":"Fred Meyer","color":"#ed1c24","name":"Tumwater"},"id":24548},{"type":"Feature","geometry":{"type":"Point","coordinates":[-122.363693,47.701923]},"properties":{"chain":"QFC","color":"#FFDF1B","name":"Holman Road"},"id":24549},{"type":"Feature","geometry":{"type":"Point","coordinates":[-122.2904381,47.790644]},"properties":{"chain":"QFC","color":"#FFDF1B","name":"Mountlake Terrace"},"id":24550},{"type":"Feature","geometry":{"type":"Point","coordinates":[-122.3587819,47.6919791]},"properties":{"chain":"Fred Meyer","color":"#ed1c24","name":"Greenwood"},"id":24551},{"type":"Feature","geometry":{"type":"Point","coordinates":[-122.2092576,47.8799113]},"properties":{"chain":"Fred Meyer","color":"#ed1c24","name":"Mill Creek"},"id":24552},{"type":"Feature","geometry":{"type":"Point","coordinates":[-122.3684231,47.6602885]},"properties":{"chain":"Fred Meyer","color":"#ed1c24","name":"Ballard"},"id":24553},{"type":"Feature","geometry":{"type":"Point","coordinates":[-122.8308983,47.0410766]},"properties":{"chain":"Fred Meyer","color":"#ed1c24","name":"Lacey"},"id":24554},{"type":"Feature","geometry":{"type":"Point","coordinates":[-122.1051955,47.9439153]},"properties":{"chain":"Fred Meyer","color":"#ed1c24","name":"Snohomish"},"id":24555},{"type":"Feature","geometry":{"type":"Point","coordinates":[-122.2059749,47.807344]},"properties":{"chain":"Fred Meyer","color":"#ed1c24","name":"Bothell"},"id":24556},{"type":"Feature","geometry":{"type":"Point","coordinates":[-122.2161099,47.789832]},"properties":{"chain":"QFC","color":"#FFDF1B","name":"Canyon Park"},"id":24557},{"type":"Feature","geometry":{"type":"Point","coordinates":[-122.5792097,47.3040597]},"properties":{"chain":"Fred Meyer","color":"#ed1c24","name":"Gig Harbor"},"id":24558},{"type":"Feature","geometry":{"type":"Point","coordinates":[-122.2964227,47.6622899]},"properties":{"chain":"QFC","color":"#FFDF1B","name":"University Village"},"id":24559},{"type":"Feature","geometry":{"type":"Point","coordinates":[-122.1841547,47.7078712]},"properties":{"chain":"Fred Meyer","color":"#ed1c24","name":"Kirkland"},"id":24560},{"type":"Feature","geometry":{"type":"Point","coordinates":[-122.19894,47.67774]},"properties":{"chain":"QFC","color":"#FFDF1B","name":"Kirkland Urban"},"id":24561},{"type":"Feature","geometry":{"type":"Point","coordinates":[-122.3315918,47.4752714]},"properties":{"chain":"Fred Meyer","color":"#ed1c24","name":"Burien"},"id":24562},{"type":"Feature","geometry":{"type":"Point","coordinates":[-122.4972644,47.2440486]},"properties":{"chain":"Fred Meyer","color":"#ed1c24","name":"Tacoma-Stevens"},"id":24563},{"type":"Feature","geometry":{"type":"Point","coordinates":[-122.5288898,47.2006877]},"properties":{"chain":"Fred Meyer","color":"#ed1c24","name":"University Place"},"id":24564},{"type":"Feature","geometry":{"type":"Point","coordinates":[-122.2053201,47.6185896]},"properties":{"chain":"QFC","color":"#FFDF1B","name":"Bellevue"},"id":24565},{"type":"Feature","geometry":{"type":"Point","coordinates":[-122.1263752,47.6808243]},"properties":{"chain":"QFC","color":"#FFDF1B","name":"Bella Bottega"},"id":24566},{"type":"Feature","geometry":{"type":"Point","coordinates":[-121.9785773,47.8629936]},"properties":{"chain":"Fred Meyer","color":"#ed1c24","name":"Monroe"},"id":24567},{"type":"Feature","geometry":{"type":"Point","coordinates":[-122.1446464,47.6288277]},"properties":{"chain":"Fred Meyer","color":"#ed1c24","name":"Bellevue"},"id":24568},{"type":"Feature","geometry":{"type":"Point","coordinates":[-123.845776,45.4747029]},"properties":{"chain":"Fred Meyer","color":"#ed1c24","name":"Tillamook"},"id":24569},{"type":"Feature","geometry":{"type":"Point","coordinates":[-122.1045348,47.6705363]},"properties":{"chain":"Fred Meyer","color":"#ed1c24","name":"Redmond"},"id":24570},{"type":"Feature","geometry":{"type":"Point","coordinates":[-122.1484722,47.5968803]},"properties":{"chain":"QFC","color":"#FFDF1B","name":"Bellevue East"},"id":24571},{"type":"Feature","geometry":{"type":"Point","coordinates":[-122.2981516,47.3742246]},"properties":{"chain":"Fred Meyer","color":"#ed1c24","name":"Redondo"},"id":24572},{"type":"Feature","geometry":{"type":"Point","coordinates":[-122.025925,47.6986213]},"properties":{"chain":"QFC","color":"#FFDF1B","name":"Redmond Ridge"},"id":24573},{"type":"Feature","geometry":{"type":"Point","coordinates":[-122.0329196,47.5833448]},"properties":{"chain":"QFC","color":"#FFDF1B","name":"Pine Lake"},"id":24574},{"type":"Feature","geometry":{"type":"Point","coordinates":[-122.1549546,47.489919]},"properties":{"chain":"QFC","color":"#FFDF1B","name":"Renton"},"id":24575},{"type":"Feature","geometry":{"type":"Point","coordinates":[-122.0388627,47.548743]},"properties":{"chain":"Fred Meyer","color":"#ed1c24","name":"Issaquah"},"id":24576},{"type":"Feature","geometry":{"type":"Point","coordinates":[-122.1993985,47.4429452]},"properties":{"chain":"Fred Meyer","color":"#ed1c24","name":"Benson Plaza"},"id":24577},{"type":"Feature","geometry":{"type":"Point","coordinates":[-124.2904377,42.0535981]},"properties":{"chain":"Fred Meyer","color":"#ed1c24","name":"Brookings"},"id":24578},{"type":"Feature","geometry":{"type":"Point","coordinates":[-124.2106805,43.3569283]},"properties":{"chain":"Fred Meyer","color":"#ed1c24","name":"Coos Bay"},"id":24579},{"type":"Feature","geometry":{"type":"Point","coordinates":[-123.3056293,42.4353401]},"properties":{"chain":"Fred Meyer","color":"#ed1c24","name":"Grants Pass"},"id":24580},{"type":"Feature","geometry":{"type":"Point","coordinates":[-124.1032871,44.0078057]},"properties":{"chain":"Fred Meyer","color":"#ed1c24","name":"Florence"},"id":24581},{"type":"Feature","geometry":{"type":"Point","coordinates":[-122.8559311,42.3144688]},"properties":{"chain":"Fred Meyer","color":"#ed1c24","name":"Medford South"},"id":24582},{"type":"Feature","geometry":{"type":"Point","coordinates":[-122.8709025,42.3518884]},"properties":{"chain":"Fred Meyer","color":"#ed1c24","name":"Medford"},"id":24583},{"type":"Feature","geometry":{"type":"Point","coordinates":[-123.3685543,43.2279664]},"properties":{"chain":"Fred Meyer","color":"#ed1c24","name":"Roseburg"},"id":24584},{"type":"Feature","geometry":{"type":"Point","coordinates":[-124.0510274,44.6509974]},"properties":{"chain":"Fred Meyer","color":"#ed1c24","name":"Newport"},"id":24585},{"type":"Feature","geometry":{"type":"Point","coordinates":[-119.2089538,34.2580299]},"properties":{"chain":"Ralphs","color":"#BE0D2C","name":"Montalvo Square"},"id":24586},{"type":"Feature","geometry":{"type":"Point","coordinates":[-123.1429636,44.0495396]},"properties":{"chain":"Fred Meyer","color":"#ed1c24","name":"West Eugene"},"id":24587},{"type":"Feature","geometry":{"type":"Point","coordinates":[-123.1263443,44.0980472]},"properties":{"chain":"Fred Meyer","color":"#ed1c24","name":"Santa Clara"},"id":24588},{"type":"Feature","geometry":{"type":"Point","coordinates":[-123.0178431,44.0634185]},"properties":{"chain":"Fred Meyer","color":"#ed1c24","name":"Springfield"},"id":24589},{"type":"Feature","geometry":{"type":"Point","coordinates":[-123.2741787,44.5752586]},"properties":{"chain":"Fred Meyer","color":"#ed1c24","name":"Corvallis"},"id":24590},{"type":"Feature","geometry":{"type":"Point","coordinates":[-121.7556737,42.2155075]},"properties":{"chain":"Fred Meyer","color":"#ed1c24","name":"Klamath Falls"},"id":24591},{"type":"Feature","geometry":{"type":"Point","coordinates":[-123.0754921,44.63097]},"properties":{"chain":"Fred Meyer","color":"#ed1c24","name":"Albany"},"id":24592},{"type":"Feature","geometry":{"type":"Point","coordinates":[-123.0409338,44.9061207]},"properties":{"chain":"Fred Meyer","color":"#ed1c24","name":"South Salem"},"id":24593},{"type":"Feature","geometry":{"type":"Point","coordinates":[-118.6263604,34.1870704]},"properties":{"chain":"Ralphs","color":"#BE0D2C","name":"Fallbrook"},"id":24594},{"type":"Feature","geometry":{"type":"Point","coordinates":[-123.0301778,44.9683322]},"properties":{"chain":"Fred Meyer","color":"#ed1c24","name":"North Salem"},"id":24595},{"type":"Feature","geometry":{"type":"Point","coordinates":[-122.9862285,44.9483916]},"properties":{"chain":"Fred Meyer","color":"#ed1c24","name":"East Salem"},"id":24596},{"type":"Feature","geometry":{"type":"Point","coordinates":[-118.5636186,34.2762556]},"properties":{"chain":"Ralphs","color":"#BE0D2C","name":"Porter Ranch"},"id":24597},{"type":"Feature","geometry":{"type":"Point","coordinates":[-118.5241578,34.2632386]},"properties":{"chain":"Ralphs","color":"#BE0D2C","name":"The GH"},"id":24598},{"type":"Feature","geometry":{"type":"Point","coordinates":[-118.5514523,34.4048237]},"properties":{"chain":"Ralphs","color":"#BE0D2C","name":"Granary Square"},"id":24599},{"type":"Feature","geometry":{"type":"Point","coordinates":[-118.4738012,34.0270564]},"properties":{"chain":"Ralphs","color":"#BE0D2C","name":"Olympic & Cloverfield"},"id":24600},{"type":"Feature","geometry":{"type":"Point","coordinates":[-118.5520028,34.4458384]},"properties":{"chain":"Ralphs","color":"#BE0D2C","name":"Northpark Village Square"},"id":24601},{"type":"Feature","geometry":{"type":"Point","coordinates":[-118.4670104,34.0449562]},"properties":{"chain":"Ralphs","color":"#BE0D2C","name":"Bundy"},"id":24602},{"type":"Feature","geometry":{"type":"Point","coordinates":[-118.4492017,34.0349667]},"properties":{"chain":"Ralphs","color":"#BE0D2C","name":"Olympic\/Barrington"},"id":24603},{"type":"Feature","geometry":{"type":"Point","coordinates":[-118.3946889,33.7604737]},"properties":{"chain":"Ralphs","color":"#BE0D2C","name":"Palos Verdes"},"id":24604},{"type":"Feature","geometry":{"type":"Point","coordinates":[-118.443904,34.063261]},"properties":{"chain":"Ralphs","color":"#BE0D2C","name":"Westwood"},"id":24605},{"type":"Feature","geometry":{"type":"Point","coordinates":[-118.447126,34.1714047]},"properties":{"chain":"Ralphs","color":"#BE0D2C","name":"Van Nuys & Burbank"},"id":24606},{"type":"Feature","geometry":{"type":"Point","coordinates":[-118.4389163,34.1501009]},"properties":{"chain":"Ralphs","color":"#BE0D2C","name":"Sherman Oaks"},"id":24607},{"type":"Feature","geometry":{"type":"Point","coordinates":[-118.3956009,33.9220163]},"properties":{"chain":"Ralphs","color":"#BE0D2C","name":"E El Segundo"},"id":24608},{"type":"Feature","geometry":{"type":"Point","coordinates":[-118.3977638,33.9563511]},"properties":{"chain":"Ralphs","color":"#BE0D2C","name":"Westchester"},"id":24609},{"type":"Feature","geometry":{"type":"Point","coordinates":[-119.7386016,38.9375457]},"properties":{"chain":"Smith's","color":"#d31245","name":"1341 US HWY. 395 N., GARDNERVILLE, NV"},"id":24610},{"type":"Feature","geometry":{"type":"Point","coordinates":[-118.4731613,34.4146539]},"properties":{"chain":"Ralphs","color":"#BE0D2C","name":"Canyon Country Village"},"id":24611},{"type":"Feature","geometry":{"type":"Point","coordinates":[-118.3537852,33.8669814]},"properties":{"chain":"Ralphs","color":"#BE0D2C","name":"South Bay"},"id":24612},{"type":"Feature","geometry":{"type":"Point","coordinates":[-118.3456148,33.8280928]},"properties":{"chain":"Ralphs","color":"#BE0D2C","name":"Torrance"},"id":24613},{"type":"Feature","geometry":{"type":"Point","coordinates":[-118.3715573,33.9790659]},"properties":{"chain":"Ralphs","color":"#BE0D2C","name":"Ladera Shopping Center"},"id":24614},{"type":"Feature","geometry":{"type":"Point","coordinates":[-118.3074672,33.7532968]},"properties":{"chain":"Ralphs","color":"#BE0D2C","name":"Tarragona Plaza"},"id":24615},{"type":"Feature","geometry":{"type":"Point","coordinates":[-119.7627223,39.1690097]},"properties":{"chain":"Smith's","color":"#d31245","name":"599 E. WILLIAM ST., CARSON CITY, NV"},"id":24616},{"type":"Feature","geometry":{"type":"Point","coordinates":[-118.3110668,33.8300205]},"properties":{"chain":"Ralphs","color":"#BE0D2C","name":"Carson & Abalone"},"id":24617},{"type":"Feature","geometry":{"type":"Point","coordinates":[-118.3678862,34.1400882]},"properties":{"chain":"Ralphs","color":"#BE0D2C","name":"Studio Plaza"},"id":24618},{"type":"Feature","geometry":{"type":"Point","coordinates":[-118.3183954,33.8869866]},"properties":{"chain":"Ralphs","color":"#BE0D2C","name":"Gardena"},"id":24619},{"type":"Feature","geometry":{"type":"Point","coordinates":[-122.9440225,45.305688]},"properties":{"chain":"Fred Meyer","color":"#ed1c24","name":"Newberg"},"id":24620},{"type":"Feature","geometry":{"type":"Point","coordinates":[-118.3395859,34.1840743]},"properties":{"chain":"Ralphs","color":"#BE0D2C","name":"Victory & Buena Vista"},"id":24621},{"type":"Feature","geometry":{"type":"Point","coordinates":[-123.045191,45.5218463]},"properties":{"chain":"Fred Meyer","color":"#ed1c24","name":"Cornelius"},"id":24622},{"type":"Feature","geometry":{"type":"Point","coordinates":[-118.3182101,34.1890113]},"properties":{"chain":"Ralphs","color":"#BE0D2C","name":"Burbank"},"id":24623},{"type":"Feature","geometry":{"type":"Point","coordinates":[-119.8522029,39.613743]},"properties":{"chain":"Smith's","color":"#d31245","name":"175 LEMMON DR., RENO, NV"},"id":24624},{"type":"Feature","geometry":{"type":"Point","coordinates":[-119.7567463,39.4373756]},"properties":{"chain":"Smith's","color":"#d31245","name":"750 S. MEADOWS PKWY., RENO, NV"},"id":24625},{"type":"Feature","geometry":{"type":"Point","coordinates":[-122.9145741,45.5000696]},"properties":{"chain":"Fred Meyer","color":"#ed1c24","name":"Hillsboro"},"id":24626},{"type":"Feature","geometry":{"type":"Point","coordinates":[-122.7707833,45.3010013]},"properties":{"chain":"Fred Meyer","color":"#ed1c24","name":"Wilsonville"},"id":24627},{"type":"Feature","geometry":{"type":"Point","coordinates":[-122.9034154,45.551532]},"properties":{"chain":"Fred Meyer","color":"#ed1c24","name":"Sunset"},"id":24628},{"type":"Feature","geometry":{"type":"Point","coordinates":[-122.757262,45.3815359]},"properties":{"chain":"Fred Meyer","color":"#ed1c24","name":"Tualatin"},"id":24629},{"type":"Feature","geometry":{"type":"Point","coordinates":[-122.6767301,45.2664015]},"properties":{"chain":"Fred Meyer","color":"#ed1c24","name":"Canby"},"id":24630},{"type":"Feature","geometry":{"type":"Point","coordinates":[-122.8416965,45.5189624]},"properties":{"chain":"Fred Meyer","color":"#ed1c24","name":"Walker Road"},"id":24631},{"type":"Feature","geometry":{"type":"Point","coordinates":[-122.7945702,45.4880726]},"properties":{"chain":"Fred Meyer","color":"#ed1c24","name":"Beaverton"},"id":24632},{"type":"Feature","geometry":{"type":"Point","coordinates":[-122.7520882,45.4410981]},"properties":{"chain":"Fred Meyer","color":"#ed1c24","name":"Tigard"},"id":24633},{"type":"Feature","geometry":{"type":"Point","coordinates":[-122.7560373,45.4854232]},"properties":{"chain":"Fred Meyer","color":"#ed1c24","name":"Raleigh Hills"},"id":24634},{"type":"Feature","geometry":{"type":"Point","coordinates":[-122.8786241,45.7426216]},"properties":{"chain":"Fred Meyer","color":"#ed1c24","name":"Scappoose"},"id":24635},{"type":"Feature","geometry":{"type":"Point","coordinates":[-122.6902309,45.4707414]},"properties":{"chain":"Fred Meyer","color":"#ed1c24","name":"Burlingame"},"id":24636},{"type":"Feature","geometry":{"type":"Point","coordinates":[-118.2333192,34.1418709]},"properties":{"chain":"Ralphs","color":"#BE0D2C","name":"Colorado"},"id":24637},{"type":"Feature","geometry":{"type":"Point","coordinates":[-118.2365961,34.2233739]},"properties":{"chain":"Ralphs","color":"#BE0D2C","name":"Crescenta Plaza"},"id":24638},{"type":"Feature","geometry":{"type":"Point","coordinates":[-118.1160563,33.7609516]},"properties":{"chain":"Ralphs","color":"#BE0D2C","name":"Marina Shopping Center"},"id":24639},{"type":"Feature","geometry":{"type":"Point","coordinates":[-118.115614,33.8479249]},"properties":{"chain":"Ralphs","color":"#BE0D2C","name":"Lakewood"},"id":24640},{"type":"Feature","geometry":{"type":"Point","coordinates":[-118.1896317,34.2007262]},"properties":{"chain":"Ralphs","color":"#BE0D2C","name":"La Canada"},"id":24641},{"type":"Feature","geometry":{"type":"Point","coordinates":[-118.1447925,34.0371597]},"properties":{"chain":"Ralphs","color":"#BE0D2C","name":"Atlantic Square"},"id":24642},{"type":"Feature","geometry":{"type":"Point","coordinates":[-118.0696489,33.781024]},"properties":{"chain":"Ralphs","color":"#BE0D2C","name":"Old Ranch Town Center"},"id":24643},{"type":"Feature","geometry":{"type":"Point","coordinates":[-118.1352246,34.1049558]},"properties":{"chain":"Ralphs","color":"#BE0D2C","name":"South Pasadena"},"id":24644},{"type":"Feature","geometry":{"type":"Point","coordinates":[-118.0619714,33.8184334]},"properties":{"chain":"Ralphs","color":"#BE0D2C","name":"Cypress Center West"},"id":24645},{"type":"Feature","geometry":{"type":"Point","coordinates":[-118.0078639,33.6853086]},"properties":{"chain":"Ralphs","color":"#BE0D2C","name":"Peninsula Marketplace"},"id":24646},{"type":"Feature","geometry":{"type":"Point","coordinates":[-118.0495733,33.982098]},"properties":{"chain":"Ralphs","color":"#BE0D2C","name":"W Whittier"},"id":24647},{"type":"Feature","geometry":{"type":"Point","coordinates":[-117.912366,33.6318785]},"properties":{"chain":"Ralphs","color":"#BE0D2C","name":"Costa Mesa"},"id":24648},{"type":"Feature","geometry":{"type":"Point","coordinates":[-118.024528,34.151696]},"properties":{"chain":"Ralphs","color":"#BE0D2C","name":"Arcadia"},"id":24649},{"type":"Feature","geometry":{"type":"Point","coordinates":[-117.7888657,33.7308734]},"properties":{"chain":"Ralphs","color":"#BE0D2C","name":"Tustin Village Center"},"id":24650},{"type":"Feature","geometry":{"type":"Point","coordinates":[-117.725591,33.5714645]},"properties":{"chain":"Ralphs","color":"#BE0D2C","name":"Aliso Pacific Plaza"},"id":24651},{"type":"Feature","geometry":{"type":"Point","coordinates":[-117.7427199,33.696567]},"properties":{"chain":"Ralphs","color":"#BE0D2C","name":"Woodbury town center"},"id":24652},{"type":"Feature","geometry":{"type":"Point","coordinates":[-117.6873699,33.5538624]},"properties":{"chain":"Ralphs","color":"#BE0D2C","name":"Laguna Niguel - Site 1"},"id":24653},{"type":"Feature","geometry":{"type":"Point","coordinates":[-117.3104843,33.1011793]},"properties":{"chain":"Ralphs","color":"#BE0D2C","name":"Poinsettia Village"},"id":24654},{"type":"Feature","geometry":{"type":"Point","coordinates":[-121.7804871,47.4933907]},"properties":{"chain":"QFC","color":"#FFDF1B","name":"North Bend"},"id":24655},{"type":"Feature","geometry":{"type":"Point","coordinates":[-122.205405,47.3858154]},"properties":{"chain":"Fred Meyer","color":"#ed1c24","name":"Kent"},"id":24656},{"type":"Feature","geometry":{"type":"Point","coordinates":[-122.3588638,47.2979032]},"properties":{"chain":"Fred Meyer","color":"#ed1c24","name":"Federal Way"},"id":24657},{"type":"Feature","geometry":{"type":"Point","coordinates":[-122.2263041,47.3153441]},"properties":{"chain":"Fred Meyer","color":"#ed1c24","name":"Auburn"},"id":24658},{"type":"Feature","geometry":{"type":"Point","coordinates":[-122.4358757,47.1905971]},"properties":{"chain":"Fred Meyer","color":"#ed1c24","name":"Tacoma-Pacific"},"id":24659},{"type":"Feature","geometry":{"type":"Point","coordinates":[-122.1184991,47.3563794]},"properties":{"chain":"Fred Meyer","color":"#ed1c24","name":"Covington"},"id":24660},{"type":"Feature","geometry":{"type":"Point","coordinates":[-122.2962711,47.2013371]},"properties":{"chain":"Fred Meyer","color":"#ed1c24","name":"Puyallup"},"id":24661},{"type":"Feature","geometry":{"type":"Point","coordinates":[-122.0188408,47.3638952]},"properties":{"chain":"Fred Meyer","color":"#ed1c24","name":"Maple Valley"},"id":24662},{"type":"Feature","geometry":{"type":"Point","coordinates":[-122.2278548,47.2044963]},"properties":{"chain":"Fred Meyer","color":"#ed1c24","name":"Sumner"},"id":24663},{"type":"Feature","geometry":{"type":"Point","coordinates":[-122.9645629,46.1486177]},"properties":{"chain":"Fred Meyer","color":"#ed1c24","name":"Longview"},"id":24664},{"type":"Feature","geometry":{"type":"Point","coordinates":[-122.7380499,45.5858293]},"properties":{"chain":"Fred Meyer","color":"#ed1c24","name":"Peninsula"},"id":24665},{"type":"Feature","geometry":{"type":"Point","coordinates":[-122.6927962,45.5239565]},"properties":{"chain":"Fred Meyer","color":"#ed1c24","name":"Stadium"},"id":24666},{"type":"Feature","geometry":{"type":"Point","coordinates":[-122.6809115,45.5758646]},"properties":{"chain":"Fred Meyer","color":"#ed1c24","name":"Interstate"},"id":24667},{"type":"Feature","geometry":{"type":"Point","coordinates":[-122.6633436,45.6770112]},"properties":{"chain":"Fred Meyer","color":"#ed1c24","name":"Hazel Dell"},"id":24668},{"type":"Feature","geometry":{"type":"Point","coordinates":[-122.6624984,45.7206085]},"properties":{"chain":"Fred Meyer","color":"#ed1c24","name":"Salmon Creek"},"id":24669},{"type":"Feature","geometry":{"type":"Point","coordinates":[-122.6455507,45.6203551]},"properties":{"chain":"Fred Meyer","color":"#ed1c24","name":"Grand Central"},"id":24670},{"type":"Feature","geometry":{"type":"Point","coordinates":[-122.6349236,45.5330393]},"properties":{"chain":"Fred Meyer","color":"#ed1c24","name":"Hollywood West"},"id":24671},{"type":"Feature","geometry":{"type":"Point","coordinates":[-122.6237195,45.5124619]},"properties":{"chain":"Fred Meyer","color":"#ed1c24","name":"Hawthorne"},"id":24672},{"type":"Feature","geometry":{"type":"Point","coordinates":[-122.6304244,45.4170066]},"properties":{"chain":"Fred Meyer","color":"#ed1c24","name":"Oak Grove"},"id":24673},{"type":"Feature","geometry":{"type":"Point","coordinates":[-122.5959047,45.5275664]},"properties":{"chain":"Fred Meyer","color":"#ed1c24","name":"Glisan"},"id":24674},{"type":"Feature","geometry":{"type":"Point","coordinates":[-122.5810676,45.4584982]},"properties":{"chain":"Fred Meyer","color":"#ed1c24","name":"Johnson Creek"},"id":24675},{"type":"Feature","geometry":{"type":"Point","coordinates":[-122.5562683,45.6195112]},"properties":{"chain":"Fred Meyer","color":"#ed1c24","name":"Mill Plain"},"id":24676},{"type":"Feature","geometry":{"type":"Point","coordinates":[-122.5509276,45.6760999]},"properties":{"chain":"Fred Meyer","color":"#ed1c24","name":"Orchards"},"id":24677},{"type":"Feature","geometry":{"type":"Point","coordinates":[-122.5489608,45.7841164]},"properties":{"chain":"Fred Meyer","color":"#ed1c24","name":"Battle Ground"},"id":24678},{"type":"Feature","geometry":{"type":"Point","coordinates":[-122.560299,45.5306519]},"properties":{"chain":"Fred Meyer","color":"#ed1c24","name":"Gateway"},"id":24679},{"type":"Feature","geometry":{"type":"Point","coordinates":[-122.5700838,45.404549]},"properties":{"chain":"Fred Meyer","color":"#ed1c24","name":"Clackamas"},"id":24680},{"type":"Feature","geometry":{"type":"Point","coordinates":[-122.5830344,45.3312936]},"properties":{"chain":"Fred Meyer","color":"#ed1c24","name":"Oregon City"},"id":24681},{"type":"Feature","geometry":{"type":"Point","coordinates":[-122.5015067,45.6058395]},"properties":{"chain":"Fred Meyer","color":"#ed1c24","name":"Fisher's Landing"},"id":24682},{"type":"Feature","geometry":{"type":"Point","coordinates":[-122.5121995,45.5029637]},"properties":{"chain":"Fred Meyer","color":"#ed1c24","name":"Division"},"id":24683},{"type":"Feature","geometry":{"type":"Point","coordinates":[-122.4874467,45.4274241]},"properties":{"chain":"Fred Meyer","color":"#ed1c24","name":"17005 SE Sunnyside Rd. Happy Valley OR"},"id":24684},{"type":"Feature","geometry":{"type":"Point","coordinates":[-122.428668,45.5303367]},"properties":{"chain":"Fred Meyer","color":"#ed1c24","name":"Wood Village"},"id":24685},{"type":"Feature","geometry":{"type":"Point","coordinates":[-122.4051716,45.4959258]},"properties":{"chain":"Fred Meyer","color":"#ed1c24","name":"Gresham"},"id":24686},{"type":"Feature","geometry":{"type":"Point","coordinates":[-122.2924639,45.4028564]},"properties":{"chain":"Fred Meyer","color":"#ed1c24","name":"Sandy"},"id":24687},{"type":"Feature","geometry":{"type":"Point","coordinates":[-121.3095136,44.0348265]},"properties":{"chain":"Fred Meyer","color":"#ed1c24","name":"Bend"},"id":24688},{"type":"Feature","geometry":{"type":"Point","coordinates":[-121.1766845,44.2673945]},"properties":{"chain":"Fred Meyer","color":"#ed1c24","name":"Redmond"},"id":24689},{"type":"Feature","geometry":{"type":"Point","coordinates":[-122.3973026,47.055248]},"properties":{"chain":"Fred Meyer","color":"#ed1c24","name":"Bethel Station"},"id":24690},{"type":"Feature","geometry":{"type":"Point","coordinates":[-122.2968621,47.0992143]},"properties":{"chain":"Fred Meyer","color":"#ed1c24","name":"South Hill"},"id":24691},{"type":"Feature","geometry":{"type":"Point","coordinates":[-122.1505361,47.1663737]},"properties":{"chain":"Fred Meyer","color":"#ed1c24","name":"Bonney Lake"},"id":24692},{"type":"Feature","geometry":{"type":"Point","coordinates":[-121.9906068,47.2004838]},"properties":{"chain":"QFC","color":"#FFDF1B","name":"Enumclaw"},"id":24693},{"type":"Feature","geometry":{"type":"Point","coordinates":[-119.7221863,39.5546929]},"properties":{"chain":"Smith's","color":"#d31245","name":"Baring Village Shopping Center"},"id":24694},{"type":"Feature","geometry":{"type":"Point","coordinates":[-119.5825816,39.2640085]},"properties":{"chain":"Smith's","color":"#d31245","name":"2200 US HWY. 50 E., DAYTON, NV"},"id":24695},{"type":"Feature","geometry":{"type":"Point","coordinates":[-121.1994318,45.6069179]},"properties":{"chain":"Fred Meyer","color":"#ed1c24","name":"The Dalles"},"id":24696},{"type":"Feature","geometry":{"type":"Point","coordinates":[-117.5393325,34.1350064]},"properties":{"chain":"Ralphs","color":"#BE0D2C","name":"Day Creek Village"},"id":24697},{"type":"Feature","geometry":{"type":"Point","coordinates":[-117.5603367,33.9740406]},"properties":{"chain":"Ralphs","color":"#BE0D2C","name":"Eastvale"},"id":24698},{"type":"Feature","geometry":{"type":"Point","coordinates":[-117.4504935,34.1377047]},"properties":{"chain":"Ralphs","color":"#BE0D2C","name":"Sierra Lakes Village"},"id":24699},{"type":"Feature","geometry":{"type":"Point","coordinates":[-120.5517978,46.9912557]},"properties":{"chain":"Fred Meyer","color":"#ed1c24","name":"Ellensburg"},"id":24700},{"type":"Feature","geometry":{"type":"Point","coordinates":[-120.5643649,46.6201393]},"properties":{"chain":"Fred Meyer","color":"#ed1c24","name":"West Yakima"},"id":24701},{"type":"Feature","geometry":{"type":"Point","coordinates":[-116.5745109,43.5884719]},"properties":{"chain":"Fred Meyer","color":"#ed1c24","name":"Nampa"},"id":24702},{"type":"Feature","geometry":{"type":"Point","coordinates":[-115.9861901,36.2118853]},"properties":{"chain":"Smith's","color":"#d31245","name":"601 S. HIGHWAY 160, PAHRUMP, NV"},"id":24703},{"type":"Feature","geometry":{"type":"Point","coordinates":[-117.4715286,33.8953204]},"properties":{"chain":"Ralphs","color":"#BE0D2C","name":"La Sierra"},"id":24704},{"type":"Feature","geometry":{"type":"Point","coordinates":[-117.3322037,33.9559087]},"properties":{"chain":"Ralphs","color":"#BE0D2C","name":"Canyon Crest Town Center"},"id":24705},{"type":"Feature","geometry":{"type":"Point","coordinates":[-117.2346044,33.5704592]},"properties":{"chain":"Ralphs","color":"#BE0D2C","name":"Plaza del Oro S\/C"},"id":24706},{"type":"Feature","geometry":{"type":"Point","coordinates":[-117.0798797,33.4843093]},"properties":{"chain":"Ralphs","color":"#BE0D2C","name":"Vail Ranch"},"id":24707},{"type":"Feature","geometry":{"type":"Point","coordinates":[-120.2909944,47.4070717]},"properties":{"chain":"Fred Meyer","color":"#ed1c24","name":"Wenatchee"},"id":24708},{"type":"Feature","geometry":{"type":"Point","coordinates":[-119.2865213,46.2626628]},"properties":{"chain":"Fred Meyer","color":"#ed1c24","name":"Richland"},"id":24709},{"type":"Feature","geometry":{"type":"Point","coordinates":[-119.1614045,46.1972209]},"properties":{"chain":"Fred Meyer","color":"#ed1c24","name":"Kennewick"},"id":24710},{"type":"Feature","geometry":{"type":"Point","coordinates":[-116.4110566,43.665843]},"properties":{"chain":"Fred Meyer","color":"#ed1c24","name":"Eagle Island"},"id":24711},{"type":"Feature","geometry":{"type":"Point","coordinates":[-116.3722372,43.6210835]},"properties":{"chain":"Fred Meyer","color":"#ed1c24","name":"Meridian"},"id":24712},{"type":"Feature","geometry":{"type":"Point","coordinates":[-116.3164908,43.5892145]},"properties":{"chain":"Fred Meyer","color":"#ed1c24","name":"Boise"},"id":24713},{"type":"Feature","geometry":{"type":"Point","coordinates":[-116.2764063,43.6455334]},"properties":{"chain":"Fred Meyer","color":"#ed1c24","name":"Glenwood"},"id":24714},{"type":"Feature","geometry":{"type":"Point","coordinates":[-116.2460065,43.6038792]},"properties":{"chain":"Fred Meyer","color":"#ed1c24","name":"Boise Franklin"},"id":24715},{"type":"Feature","geometry":{"type":"Point","coordinates":[-116.1874525,43.5679789]},"properties":{"chain":"Fred Meyer","color":"#ed1c24","name":"Southeast Boise"},"id":24716},{"type":"Feature","geometry":{"type":"Point","coordinates":[-115.3004091,36.314552]},"properties":{"chain":"Smith's","color":"#d31245","name":"Smith's Marketplace"},"id":24717},{"type":"Feature","geometry":{"type":"Point","coordinates":[-115.2856461,36.2907187]},"properties":{"chain":"Smith's","color":"#d31245","name":"Montecito Marketplace"},"id":24718},{"type":"Feature","geometry":{"type":"Point","coordinates":[-115.2838091,36.2016645]},"properties":{"chain":"Smith's","color":"#d31245","name":"2211 N. RAMPART BLVD., LAS VEGAS, NV"},"id":24719},{"type":"Feature","geometry":{"type":"Point","coordinates":[-115.312232,36.1577063]},"properties":{"chain":"Smith's","color":"#d31245","name":"Hualapai Commons"},"id":24720},{"type":"Feature","geometry":{"type":"Point","coordinates":[-115.1790264,36.2850238]},"properties":{"chain":"Smith's","color":"#d31245","name":"6855 ALIANTE PKWY., NO. LAS VEGAS, NV"},"id":24721},{"type":"Feature","geometry":{"type":"Point","coordinates":[-115.2775834,36.1426549]},"properties":{"chain":"Smith's","color":"#d31245","name":"8555 W. SAHARA AVE., LAS VEGAS, NV"},"id":24722},{"type":"Feature","geometry":{"type":"Point","coordinates":[-115.313164,36.101571]},"properties":{"chain":"Smith's","color":"#d31245","name":"Siena Town Center"},"id":24723},{"type":"Feature","geometry":{"type":"Point","coordinates":[-115.2952898,36.1161817]},"properties":{"chain":"Smith's","color":"#d31245","name":"9350 W. FLAMINGO RD., LAS VEGAS, NV"},"id":24724},{"type":"Feature","geometry":{"type":"Point","coordinates":[-115.1192888,36.2751999]},"properties":{"chain":"Smith's","color":"#d31245","name":"Shadowcreek"},"id":24725},{"type":"Feature","geometry":{"type":"Point","coordinates":[-115.2064237,36.1314449]},"properties":{"chain":"Smith's","color":"#d31245","name":"Desert Crossing"},"id":24726},{"type":"Feature","geometry":{"type":"Point","coordinates":[-115.1745174,36.1613364]},"properties":{"chain":"Smith's","color":"#d31245","name":"Rancho Towne & Country"},"id":24727},{"type":"Feature","geometry":{"type":"Point","coordinates":[-115.2795963,36.0559241]},"properties":{"chain":"Smith's","color":"#d31245","name":"8525 W Warm Springs Rd. Las Vegas NV"},"id":24728},{"type":"Feature","geometry":{"type":"Point","coordinates":[-115.2263864,36.1015027]},"properties":{"chain":"Smith's","color":"#d31245","name":"Tropicana Marketplace"},"id":24729},{"type":"Feature","geometry":{"type":"Point","coordinates":[-115.2417723,36.0424108]},"properties":{"chain":"Smith's","color":"#d31245","name":"Southwest Marketplace Shopping Center"},"id":24730},{"type":"Feature","geometry":{"type":"Point","coordinates":[-115.060332,36.1676242]},"properties":{"chain":"Smith's","color":"#d31245","name":"SUNRISE MARKETPLACE"},"id":24731},{"type":"Feature","geometry":{"type":"Point","coordinates":[-115.1706842,36.0401912]},"properties":{"chain":"Smith's","color":"#d31245","name":"8180 Las Vegas Blvd S Las Vegas NV"},"id":24732},{"type":"Feature","geometry":{"type":"Point","coordinates":[-115.0898536,36.1164013]},"properties":{"chain":"Smith's","color":"#d31245","name":"Paradise Marketplace"},"id":24733},{"type":"Feature","geometry":{"type":"Point","coordinates":[-115.1191272,36.0405268]},"properties":{"chain":"Smith's","color":"#d31245","name":"2385 E. WINDMILL LANE, LAS VEGAS, NV"},"id":24734},{"type":"Feature","geometry":{"type":"Point","coordinates":[-115.0735019,36.0725467]},"properties":{"chain":"Smith's","color":"#d31245","name":"Sunset Mountain Plaza"},"id":24735},{"type":"Feature","geometry":{"type":"Point","coordinates":[-115.1341665,36.01205]},"properties":{"chain":"Smith's","color":"#d31245","name":"Silverado Ranch"},"id":24736},{"type":"Feature","geometry":{"type":"Point","coordinates":[-117.2317127,32.9529048]},"properties":{"chain":"Ralphs","color":"#BE0D2C","name":"Del Mar Highlands town center"},"id":24737},{"type":"Feature","geometry":{"type":"Point","coordinates":[-117.155417,32.7758918]},"properties":{"chain":"Ralphs","color":"#BE0D2C","name":"Friars-Mission Center"},"id":24738},{"type":"Feature","geometry":{"type":"Point","coordinates":[-117.1669074,33.1306429]},"properties":{"chain":"Ralphs","color":"#BE0D2C","name":"Campus Marketplace"},"id":24739},{"type":"Feature","geometry":{"type":"Point","coordinates":[-117.0250968,32.6159223]},"properties":{"chain":"Ralphs","color":"#BE0D2C","name":"The Plaza at Sunbow"},"id":24740},{"type":"Feature","geometry":{"type":"Point","coordinates":[-117.1127455,33.0191648]},"properties":{"chain":"Ralphs","color":"#BE0D2C","name":"4S Commons Town Center"},"id":24741},{"type":"Feature","geometry":{"type":"Point","coordinates":[-117.0755982,32.9809705]},"properties":{"chain":"Ralphs","color":"#BE0D2C","name":"Carmel MTN Ranch Town Center"},"id":24742},{"type":"Feature","geometry":{"type":"Point","coordinates":[-117.3622158,47.6525303]},"properties":{"chain":"Fred Meyer","color":"#ed1c24","name":"Thor Street\/Spokane"},"id":24743},{"type":"Feature","geometry":{"type":"Point","coordinates":[-117.4023408,47.7675968]},"properties":{"chain":"Fred Meyer","color":"#ed1c24","name":"Wandermere"},"id":24744},{"type":"Feature","geometry":{"type":"Point","coordinates":[-117.1934717,47.6588398]},"properties":{"chain":"Fred Meyer","color":"#ed1c24","name":"Spokane Sullivan"},"id":24745},{"type":"Feature","geometry":{"type":"Point","coordinates":[-116.7947521,47.7124854]},"properties":{"chain":"Fred Meyer","color":"#ed1c24","name":"Coeur D Alene"},"id":24746},{"type":"Feature","geometry":{"type":"Point","coordinates":[-114.4626573,42.5753383]},"properties":{"chain":"Fred Meyer","color":"#ed1c24","name":"Twin Falls"},"id":24747},{"type":"Feature","geometry":{"type":"Point","coordinates":[-114.4465246,42.564093]},"properties":{"chain":"Smith's","color":"#d31245","name":"1913 ADDISON AVE. E, TWIN FALLS, ID 83301"},"id":24748},{"type":"Feature","geometry":{"type":"Point","coordinates":[-113.7818161,42.5367256]},"properties":{"chain":"Smith's","color":"#d31245","name":"937 E. MAIN STREET, BURLEY, ID"},"id":24749},{"type":"Feature","geometry":{"type":"Point","coordinates":[-114.9658283,36.0270278]},"properties":{"chain":"Smith's","color":"#d31245","name":"Henderson Shopping Village"},"id":24750},{"type":"Feature","geometry":{"type":"Point","coordinates":[-114.3094,48.2017405]},"properties":{"chain":"Smith's","color":"#d31245","name":"195 3RD AVE. EAST N., KALLISPELL, MT"},"id":24751},{"type":"Feature","geometry":{"type":"Point","coordinates":[-114.1802602,48.374485]},"properties":{"chain":"Smith's","color":"#d31245","name":"419 NUCLEUS AVE., COLUMBIA FALLS, MT"},"id":24752},{"type":"Feature","geometry":{"type":"Point","coordinates":[-112.44926,42.8898398]},"properties":{"chain":"Fred Meyer","color":"#ed1c24","name":"Pocatello"},"id":24753},{"type":"Feature","geometry":{"type":"Point","coordinates":[-112.0200582,43.5107155]},"properties":{"chain":"Fred Meyer","color":"#ed1c24","name":"Idaho Falls"},"id":24754},{"type":"Feature","geometry":{"type":"Point","coordinates":[-112.016649,41.5066131]},"properties":{"chain":"Smith's","color":"#d31245","name":"156 S. MAIN ST., BRIGHAM CITY, UT"},"id":24755},{"type":"Feature","geometry":{"type":"Point","coordinates":[-111.8327584,41.7456333]},"properties":{"chain":"Smith's","color":"#d31245","name":"Smith's Marketplace"},"id":24756},{"type":"Feature","geometry":{"type":"Point","coordinates":[-114.0626908,36.8083678]},"properties":{"chain":"Smith's","color":"#d31245","name":"350 N. SANDHILL BLVD., MESQUITE, NV"},"id":24757},{"type":"Feature","geometry":{"type":"Point","coordinates":[-113.5914717,37.1088259]},"properties":{"chain":"Smith's","color":"#d31245","name":"20 N. BLUFF ST., ST. GEORGE, UT"},"id":24758},{"type":"Feature","geometry":{"type":"Point","coordinates":[-113.5558864,37.0852766]},"properties":{"chain":"Smith's","color":"#d31245","name":"Dinosaur Crossing"},"id":24759},{"type":"Feature","geometry":{"type":"Point","coordinates":[-113.0620525,37.6662364]},"properties":{"chain":"Smith's","color":"#d31245","name":"633 MAIN STREET, CEDAR CITY, UT"},"id":24760},{"type":"Feature","geometry":{"type":"Point","coordinates":[-112.023583,40.5093006]},"properties":{"chain":"Smith's","color":"#d31245","name":"5560 W. 13400 SO., HERRIMAN, UT"},"id":24761},{"type":"Feature","geometry":{"type":"Point","coordinates":[-112.0838735,40.6951992]},"properties":{"chain":"Smith's","color":"#d31245","name":"West Bench Plaza"},"id":24762},{"type":"Feature","geometry":{"type":"Point","coordinates":[-112.0211482,40.539528]},"properties":{"chain":"Smith's","color":"#d31245","name":"Smith's Marketplace"},"id":24763},{"type":"Feature","geometry":{"type":"Point","coordinates":[-112.0271919,40.6115622]},"properties":{"chain":"Smith's","color":"#d31245","name":"Smith's Marketplace"},"id":24764},{"type":"Feature","geometry":{"type":"Point","coordinates":[-112.025747,40.6839945]},"properties":{"chain":"Smith's","color":"#d31245","name":"Legacy Shopping Center"},"id":24765},{"type":"Feature","geometry":{"type":"Point","coordinates":[-111.9876884,40.5889411]},"properties":{"chain":"Smith's","color":"#d31245","name":"4080 W. 9000 S., WEST JORDAN, UT"},"id":24766},{"type":"Feature","geometry":{"type":"Point","coordinates":[-111.9164224,40.3728756]},"properties":{"chain":"Smith's","color":"#d31245","name":"Smith's Marketplace"},"id":24767},{"type":"Feature","geometry":{"type":"Point","coordinates":[-116.2670926,33.6866887]},"properties":{"chain":"Ralphs","color":"#BE0D2C","name":"Citrus Plaza"},"id":24768},{"type":"Feature","geometry":{"type":"Point","coordinates":[-111.0599448,45.6944818]},"properties":{"chain":"Smith's","color":"#d31245","name":"Bridger Peaks"},"id":24769},{"type":"Feature","geometry":{"type":"Point","coordinates":[-111.967321,41.3043612]},"properties":{"chain":"Smith's","color":"#d31245","name":"Smith's Marketplace"},"id":24770},